[
  {
    "_id": {
      "$oid": "604c56e31e60e6e1146458b6"
    },
    "state": "Alabama",
    "location": "Auburn",
    "address": "346 W Magnolia Ave Auburn, AL 36832 US",
    "latitude": "32.606812966051244",
    "longitude": "-85.48732833164195"
  },
  {
    "_id": {
      "$oid": "604c56e31e60e6e1146458b7"
    },
    "state": "Alabama",
    "location": "Birmingham",
    "address": "300 20th St S Birmingham, AL 35233 US",
    "latitude": "33.509721495414745",
    "longitude": "-86.80275567068401"
  },
  {
    "_id": {
      "$oid": "604c56e31e60e6e1146458b8"
    },
    "state": "Alabama",
    "location": "Birmingham",
    "address": "3220 Morrow Rd Birmingham, AL 35235 US",
    "latitude": "33.59558141391436",
    "longitude": "-86.64743684970283"
  },
  {
    "_id": {
      "$oid": "604c56e31e60e6e1146458b9"
    },
    "state": "Alabama",
    "location": "Birmingham",
    "address": "4719 Highway 280 Birmingham, AL 35242 US",
    "latitude": "33.42258214624579",
    "longitude": "-86.6982794650297"
  },
  {
    "_id": {
      "$oid": "604c56e31e60e6e1146458ba"
    },
    "state": "Alabama",
    "location": "Cullman",
    "address": "1821 Cherokee Ave SW Cullman, AL 35055 US",
    "latitude": "34.15413376734492",
    "longitude": "-86.84122007667406"
  },
  {
    "_id": {
      "$oid": "604c56e31e60e6e1146458bb"
    },
    "state": "Alabama",
    "location": "Hoover",
    "address": "1759 Montgomery Hwy Hoover, AL 35244 US",
    "latitude": "33.378958029568594",
    "longitude": "-86.80380210088629"
  },
  {
    "_id": {
      "$oid": "604c56e31e60e6e1146458bc"
    },
    "state": "Alabama",
    "location": "Huntsville",
    "address": "5900 University Dr NW Ste D2 Huntsville, AL 35806 US",
    "latitude": "34.742319254429496",
    "longitude": "-86.6657204641674"
  },
  {
    "_id": {
      "$oid": "604c56e31e60e6e1146458bd"
    },
    "state": "Alabama",
    "location": "Mobile",
    "address": "3871 Airport Blvd Mobile, AL 36608 US",
    "latitude": "30.675337809949887",
    "longitude": "-88.143753929995"
  },
  {
    "_id": {
      "$oid": "604c56e31e60e6e1146458be"
    },
    "state": "Alabama",
    "location": "Mobile",
    "address": "7765 Airport Blvd D100 Mobile, AL 36608 US",
    "latitude": "30.68273057569605",
    "longitude": "-88.22499815689844"
  },
  {
    "_id": {
      "$oid": "604c56e31e60e6e1146458bf"
    },
    "state": "Alabama",
    "location": "Montgomery",
    "address": "2560 Berryhill Rd Ste C Montgomery, AL 36117 US",
    "latitude": "32.35917687650774",
    "longitude": "-86.16225285227608"
  },
  {
    "_id": {
      "$oid": "604c56e31e60e6e1146458c0"
    },
    "state": "Alabama",
    "location": "Opelika",
    "address": "2125 Interstate Dr Opelika, AL 36801 US",
    "latitude": "32.616808752194316",
    "longitude": "-85.40447876717928"
  },
  {
    "_id": {
      "$oid": "604c56e31e60e6e1146458c1"
    },
    "state": "Alabama",
    "location": "Prattville",
    "address": "2566 Cobbs Ford Rd Prattville, AL 36066 US",
    "latitude": "32.459169",
    "longitude": "-86.391343"
  },
  {
    "_id": {
      "$oid": "604c56e31e60e6e1146458c2"
    },
    "state": "Alabama",
    "location": "Tuscaloosa",
    "address": "1203 University Blvd Tuscaloosa, AL 35401 US",
    "latitude": "33.21066866513092",
    "longitude": "-87.55362088910408"
  },
  {
    "_id": {
      "$oid": "604c56e31e60e6e1146458c3"
    },
    "state": "Alabama",
    "location": "Tuscaloosa",
    "address": "1800 McFarland Blvd E Ste 608 Tuscaloosa, AL 35404 US",
    "latitude": "33.19675499999999",
    "longitude": "-87.52704204662706"
  },
  {
    "_id": {
      "$oid": "604c56e31e60e6e1146458c4"
    },
    "state": "Alabama",
    "location": "Vestavia Hills",
    "address": "1031 Montgomery Hwy Ste 111 Vestavia Hills, AL 35216 US",
    "latitude": "33.439069161673594",
    "longitude": "-86.78828456747647"
  },
  {
    "_id": {
      "$oid": "604c56e31e60e6e1146458c5"
    },
    "state": "Arizona",
    "location": "Avondale",
    "address": "9925 W McDowell Rd Ste 101 Avondale, AZ 85392 US",
    "latitude": "33.46437705872272",
    "longitude": "-112.27319356506382"
  },
  {
    "_id": {
      "$oid": "604c56e31e60e6e1146458c6"
    },
    "state": "Arizona",
    "location": "Buckeye",
    "address": "944 S Watson Rd Buckeye, AZ 85326 US",
    "latitude": "33.4383084",
    "longitude": "-112.55830390000001"
  },
  {
    "_id": {
      "$oid": "604c56e31e60e6e1146458c7"
    },
    "state": "Arizona",
    "location": "Casa Grande",
    "address": "1775 E Florence Blvd Ste 1 Casa Grande, AZ 85122 US",
    "latitude": "32.8791300574308",
    "longitude": "-111.71123532758007"
  },
  {
    "_id": {
      "$oid": "604c56e31e60e6e1146458c8"
    },
    "state": "Arizona",
    "location": "Cave Creek",
    "address": "5355 E Carefree Hwy Bldg E Cave Creek, AZ 85331 US",
    "latitude": "33.7991455",
    "longitude": "-111.96608379999999"
  },
  {
    "_id": {
      "$oid": "604c56e31e60e6e1146458c9"
    },
    "state": "Arizona",
    "location": "Chandler",
    "address": "2895 S Alma School Rd Ste 1 Chandler, AZ 85286 US",
    "latitude": "33.2639222376452",
    "longitude": "-111.8572605975222"
  },
  {
    "_id": {
      "$oid": "604c56e31e60e6e1146458ca"
    },
    "state": "Arizona",
    "location": "Chandler",
    "address": "3395 W Chandler Blvd Suite 1 Chandler, AZ 85226 US",
    "latitude": "33.30528109389568",
    "longitude": "-111.8999821928628"
  },
  {
    "_id": {
      "$oid": "604c56e31e60e6e1146458cb"
    },
    "state": "Arizona",
    "location": "Chandler",
    "address": "890 N 54th St Ste 5 Chandler, AZ 85226 US",
    "latitude": "33.31742039082265",
    "longitude": "-111.96882761900793"
  },
  {
    "_id": {
      "$oid": "604c56e31e60e6e1146458cc"
    },
    "state": "Arizona",
    "location": "Flagstaff",
    "address": "1111 S Plaza Way Flagstaff, AZ 86001 US",
    "latitude": "35.189859999999996",
    "longitude": "-111.661643"
  },
  {
    "_id": {
      "$oid": "604c56e31e60e6e1146458cd"
    },
    "state": "Arizona",
    "location": "Gilbert",
    "address": "1084 S Gilbert Rd Ste 104 Gilbert, AZ 85296 US",
    "latitude": "33.32988022270755",
    "longitude": "-111.79089592376448"
  },
  {
    "_id": {
      "$oid": "604c56e31e60e6e1146458ce"
    },
    "state": "Arizona",
    "location": "Gilbert",
    "address": "1546 N Cooper Rd Gilbert, AZ 85233 US",
    "latitude": "33.37792420216465",
    "longitude": "-111.80763961039871"
  },
  {
    "_id": {
      "$oid": "604c56e31e60e6e1146458cf"
    },
    "state": "Arizona",
    "location": "Gilbert",
    "address": "2224 E Williams Field Rd Ste 109 Gilbert, AZ 85295 US",
    "latitude": "33.3081148",
    "longitude": "-111.74274140000001"
  },
  {
    "_id": {
      "$oid": "604c56e31e60e6e1146458d0"
    },
    "state": "Arizona",
    "location": "Gilbert",
    "address": "3757 S Gilbert Rd Ste 110 Gilbert, AZ 85297 US",
    "latitude": "33.281812",
    "longitude": "-111.78891580000001"
  },
  {
    "_id": {
      "$oid": "604c56e31e60e6e1146458d1"
    },
    "state": "Arizona",
    "location": "Glendale",
    "address": "20004 N 67th Ave Suite 500 Glendale, AZ 85308 US",
    "latitude": "33.6659131",
    "longitude": "-112.20345379999999"
  },
  {
    "_id": {
      "$oid": "604c56e31e60e6e1146458d2"
    },
    "state": "Arizona",
    "location": "Glendale",
    "address": "5849 W Northern Ave Ste 500 Glendale, AZ 85301 US",
    "latitude": "33.5523649",
    "longitude": "-112.1856023"
  },
  {
    "_id": {
      "$oid": "604c56e31e60e6e1146458d3"
    },
    "state": "Arizona",
    "location": "Glendale",
    "address": "5880 W Thunderbird Rd Ste 1 Glendale, AZ 85306 US",
    "latitude": "33.61131275531313",
    "longitude": "-112.18452254968548"
  },
  {
    "_id": {
      "$oid": "604c56e31e60e6e1146458d4"
    },
    "state": "Arizona",
    "location": "Glendale",
    "address": "7700 W Arrowhead Towne Ctr Ste 2067 Glendale, AZ 85308 US",
    "latitude": "33.64207417858354",
    "longitude": "-112.22530473871643"
  },
  {
    "_id": {
      "$oid": "604c56e31e60e6e1146458d5"
    },
    "state": "Arizona",
    "location": "Glendale",
    "address": "9410 W Hanna Ln Ste A101 Glendale, AZ 85305 US",
    "latitude": "33.535085678021716",
    "longitude": "-112.26195146901438"
  },
  {
    "_id": {
      "$oid": "604c56e31e60e6e1146458d6"
    },
    "state": "Arizona",
    "location": "Goodyear",
    "address": "1560 N Litchfield Rd Goodyear, AZ 85395 US",
    "latitude": "33.463806634713315",
    "longitude": "-112.35866282944778"
  },
  {
    "_id": {
      "$oid": "604c56e31e60e6e1146458d7"
    },
    "state": "Arizona",
    "location": "Green Valley",
    "address": "18725 S Nogales Hwy Green Valley, AZ 85614 US",
    "latitude": "31.909951",
    "longitude": "-110.9799733"
  },
  {
    "_id": {
      "$oid": "604c56e31e60e6e1146458d8"
    },
    "state": "Arizona",
    "location": "Kingman",
    "address": "3455 N Stockton Hill Rd Ste C Kingman, AZ 86409 US",
    "latitude": "35.2241165",
    "longitude": "-114.0370087"
  },
  {
    "_id": {
      "$oid": "604c56e31e60e6e1146458d9"
    },
    "state": "Arizona",
    "location": "Lake Havasu City",
    "address": "55 Lake Havasu Ave S Ste M Lake Havasu City, AZ 86403 US",
    "latitude": "34.47479664860446",
    "longitude": "-114.34551069653816"
  },
  {
    "_id": {
      "$oid": "604c56e31e60e6e1146458da"
    },
    "state": "Arizona",
    "location": "Laveen",
    "address": "5130 W Baseline Rd Ste 105 Laveen, AZ 85339 US",
    "latitude": "33.37927",
    "longitude": "-112.16899939999999"
  },
  {
    "_id": {
      "$oid": "604c56e31e60e6e1146458db"
    },
    "state": "Arizona",
    "location": "Marana",
    "address": "5940 W Arizona Pavillions Dr Ste 110 Marana, AZ 85743 US",
    "latitude": "32.354884717102536",
    "longitude": "-111.09165199846213"
  },
  {
    "_id": {
      "$oid": "604c56e31e60e6e1146458dc"
    },
    "state": "Arizona",
    "location": "Maricopa",
    "address": "21423 N John Wayne Pkwy Ste 105 Maricopa, AZ 85139 US",
    "latitude": "33.0735015",
    "longitude": "-112.0428503"
  },
  {
    "_id": {
      "$oid": "604c56e31e60e6e1146458dd"
    },
    "state": "Arizona",
    "location": "Mesa",
    "address": "1229 E McKellips Rd Ste 102 Mesa, AZ 85203 US",
    "latitude": "33.451065255847375",
    "longitude": "-111.80335687153051"
  },
  {
    "_id": {
      "$oid": "604c56e31e60e6e1146458de"
    },
    "state": "Arizona",
    "location": "Mesa",
    "address": "1335 S Alma School Rd Ste 105 Mesa, AZ 85210 US",
    "latitude": "33.38960599017438",
    "longitude": "-111.85682718956663"
  },
  {
    "_id": {
      "$oid": "604c56e31e60e6e1146458df"
    },
    "state": "Arizona",
    "location": "Mesa",
    "address": "1411 S Power Rd Ste 103 Mesa, AZ 85206 US",
    "latitude": "33.3898773",
    "longitude": "-111.68393590000002"
  },
  {
    "_id": {
      "$oid": "604c56e31e60e6e1146458e0"
    },
    "state": "Arizona",
    "location": "Mesa",
    "address": "1955 S Signal Butte Rd Ste 101 Mesa, AZ 85209 US",
    "latitude": "33.379424818134176",
    "longitude": "-111.60094897883607"
  },
  {
    "_id": {
      "$oid": "604c56e31e60e6e1146458e1"
    },
    "state": "Arizona",
    "location": "Mesa",
    "address": "2849 N Power Rd Ste 101 Mesa, AZ 85215 US",
    "latitude": "33.467905312396304",
    "longitude": "-111.68346853282073"
  },
  {
    "_id": {
      "$oid": "604c56e31e60e6e1146458e2"
    },
    "state": "Arizona",
    "location": "Mesa",
    "address": "3440 E Baseline Rd Unit 104 Mesa, AZ 85204 US",
    "latitude": "33.37966761390607",
    "longitude": "-111.75581290980438"
  },
  {
    "_id": {
      "$oid": "604c56e31e60e6e1146458e3"
    },
    "state": "Arizona",
    "location": "Mesa",
    "address": "4984 S Power Rd Ste 107 Mesa, AZ 85212 US",
    "latitude": "33.32550687825606",
    "longitude": "-111.68759818374691"
  },
  {
    "_id": {
      "$oid": "604c56e31e60e6e1146458e4"
    },
    "state": "Arizona",
    "location": "Oro Valley",
    "address": "10604 N Oracle Rd Ste 101 Oro Valley, AZ 85737 US",
    "latitude": "32.3987337",
    "longitude": "-110.95573970000001"
  },
  {
    "_id": {
      "$oid": "604c56e31e60e6e1146458e5"
    },
    "state": "Arizona",
    "location": "Peoria",
    "address": "16680 N 83rd Ave Ste 101 Peoria, AZ 85382 US",
    "latitude": "33.63626807976065",
    "longitude": "-112.23411100604244"
  },
  {
    "_id": {
      "$oid": "604c56e31e60e6e1146458e6"
    },
    "state": "Arizona",
    "location": "Peoria",
    "address": "9940 W Happy Valley Pkwy Ste 1040 Peoria, AZ 85383 US",
    "latitude": "33.711424900000004",
    "longitude": "-112.27308059999999"
  },
  {
    "_id": {
      "$oid": "604c56e31e60e6e1146458e7"
    },
    "state": "Arizona",
    "location": "Phoenix",
    "address": "100 E Camelback Rd 200 Phoenix, AZ 85012 US",
    "latitude": "33.5096598",
    "longitude": "-112.07167920000002"
  },
  {
    "_id": {
      "$oid": "604c56e31e60e6e1146458e8"
    },
    "state": "Arizona",
    "location": "Phoenix",
    "address": "11 W Washington St Suite 140 Phoenix, AZ 85003 US",
    "latitude": "33.44806055476972",
    "longitude": "-112.07445550735758"
  },
  {
    "_id": {
      "$oid": "604c56e31e60e6e1146458e9"
    },
    "state": "Arizona",
    "location": "Phoenix",
    "address": "1515 N 7th Ave Ste 120 Phoenix, AZ 85007 US",
    "latitude": "33.4655983",
    "longitude": "-112.08238109999999"
  },
  {
    "_id": {
      "$oid": "604c56e31e60e6e1146458ea"
    },
    "state": "Arizona",
    "location": "Phoenix",
    "address": "1660 E Camelback Rd Ste 185 Phoenix, AZ 85016 US",
    "latitude": "33.51037506402035",
    "longitude": "-112.04622043510204"
  },
  {
    "_id": {
      "$oid": "604c56e31e60e6e1146458eb"
    },
    "state": "Arizona",
    "location": "Phoenix",
    "address": "16635 N Tatum Blvd Ste 100 Phoenix, AZ 85032 US",
    "latitude": "33.63818544112361",
    "longitude": "-111.97738650921002"
  },
  {
    "_id": {
      "$oid": "604c56e31e60e6e1146458ec"
    },
    "state": "Arizona",
    "location": "Phoenix",
    "address": "1818 W Bethany Home Rd Phoenix, AZ 85015 US",
    "latitude": "33.524379700000004",
    "longitude": "-112.0986855"
  },
  {
    "_id": {
      "$oid": "604c56e31e60e6e1146458ed"
    },
    "state": "Arizona",
    "location": "Phoenix",
    "address": "21001 N Tatum Blvd Phoenix, AZ 85050 US",
    "latitude": "33.6747533",
    "longitude": "-111.9752754"
  },
  {
    "_id": {
      "$oid": "604c56e31e60e6e1146458ee"
    },
    "state": "Arizona",
    "location": "Phoenix",
    "address": "2415 E Baseline Rd Ste 111 Phoenix, AZ 85042 US",
    "latitude": "33.377257168580776",
    "longitude": "-112.02987286502967"
  },
  {
    "_id": {
      "$oid": "604c56e31e60e6e1146458ef"
    },
    "state": "Arizona",
    "location": "Phoenix",
    "address": "2450 W Bell Rd Ste 5 Phoenix, AZ 85023 US",
    "latitude": "33.640372836488105",
    "longitude": "-112.11227864140172"
  },
  {
    "_id": {
      "$oid": "604c56e31e60e6e1146458f0"
    },
    "state": "Arizona",
    "location": "Phoenix",
    "address": "2470 W Happy Valley Rd Ste 1181 Phoenix, AZ 85085 US",
    "latitude": "33.714657",
    "longitude": "-112.1125722"
  },
  {
    "_id": {
      "$oid": "604c56e31e60e6e1146458f1"
    },
    "state": "Arizona",
    "location": "Phoenix",
    "address": "3009 W Agua Fria Fwy Ste #1 Phoenix, AZ 85027 US",
    "latitude": "33.66665768531911",
    "longitude": "-112.12322165701374"
  },
  {
    "_id": {
      "$oid": "604c56e31e60e6e1146458f2"
    },
    "state": "Arizona",
    "location": "Phoenix",
    "address": "3039 W Peoria Ave Ste C105 Phoenix, AZ 85029 US",
    "latitude": "33.5814625",
    "longitude": "-112.1251124"
  },
  {
    "_id": {
      "$oid": "604c56e31e60e6e1146458f3"
    },
    "state": "Arizona",
    "location": "Phoenix",
    "address": "3125 E Indian School Rd Ste 101 Phoenix, AZ 85016 US",
    "latitude": "33.49495085405304",
    "longitude": "-112.014633376275"
  },
  {
    "_id": {
      "$oid": "604c56e31e60e6e1146458f4"
    },
    "state": "Arizona",
    "location": "Phoenix",
    "address": "4111 E Chandler Blvd Phoenix, AZ 85048 US",
    "latitude": "33.30479751662666",
    "longitude": "-111.99361395337296"
  },
  {
    "_id": {
      "$oid": "604c56e31e60e6e1146458f5"
    },
    "state": "Arizona",
    "location": "Phoenix",
    "address": "425 E Bell Rd Ste 140 Phoenix, AZ 85022 US",
    "latitude": "33.63993406534886",
    "longitude": "-112.06746827976605"
  },
  {
    "_id": {
      "$oid": "604c56e31e60e6e1146458f6"
    },
    "state": "Arizona",
    "location": "Phoenix",
    "address": "4423 E. Thomas Road Suite B Phoenix, AZ 85018 US",
    "latitude": "33.47971018719496",
    "longitude": "-111.98621165153791"
  },
  {
    "_id": {
      "$oid": "604c56e31e60e6e1146458f7"
    },
    "state": "Arizona",
    "location": "Phoenix",
    "address": "4622 E Cactus Rd Phoenix, AZ 85032 US",
    "latitude": "33.599529",
    "longitude": "-111.981757"
  },
  {
    "_id": {
      "$oid": "604c56e31e60e6e1146458f8"
    },
    "state": "Arizona",
    "location": "Phoenix",
    "address": "4705 E Broadway Rd Phoenix, AZ 85040 US",
    "latitude": "33.406421",
    "longitude": "-111.979649"
  },
  {
    "_id": {
      "$oid": "604c56e31e60e6e1146458f9"
    },
    "state": "Arizona",
    "location": "Phoenix",
    "address": "7427 W Thomas Rd Suite 5 Phoenix, AZ 85033 US",
    "latitude": "33.479676480750506",
    "longitude": "-112.21983422329616"
  },
  {
    "_id": {
      "$oid": "604c56e31e60e6e1146458fa"
    },
    "state": "Arizona",
    "location": "Prescott",
    "address": "351 N Montezuma St Ste B Prescott, AZ 86301 US",
    "latitude": "34.54663162772478",
    "longitude": "-112.46924604662706"
  },
  {
    "_id": {
      "$oid": "604c56e31e60e6e1146458fb"
    },
    "state": "Arizona",
    "location": "Prescott Valley",
    "address": "5791 E State Route 69 Ste 100 Prescott Valley, AZ 86314 US",
    "latitude": "34.578154999999995",
    "longitude": "-112.362518"
  },
  {
    "_id": {
      "$oid": "604c56e31e60e6e1146458fc"
    },
    "state": "Arizona",
    "location": "Queen Creek",
    "address": "21172 S Ellsworth Loop Rd Ste 114 Queen Creek, AZ 85142 US",
    "latitude": "33.256185336370194",
    "longitude": "-111.63888845969365"
  },
  {
    "_id": {
      "$oid": "604c56e31e60e6e1146458fd"
    },
    "state": "Arizona",
    "location": "Scottsdale",
    "address": "11015 N Scottsdale Rd Ste 100 Scottsdale, AZ 85254 US",
    "latitude": "33.58595737304114",
    "longitude": "-111.92558185222026"
  },
  {
    "_id": {
      "$oid": "604c56e31e60e6e1146458fe"
    },
    "state": "Arizona",
    "location": "Scottsdale",
    "address": "15035 N Thompson Peak Pkwy Ste E101 Scottsdale, AZ 85260 US",
    "latitude": "33.622401247673174",
    "longitude": "-111.873954738914"
  },
  {
    "_id": {
      "$oid": "604c56e31e60e6e1146458ff"
    },
    "state": "Arizona",
    "location": "Scottsdale",
    "address": "15425 N Scottsdale Rd Ste 160 Scottsdale, AZ 85254 US",
    "latitude": "33.62629570000001",
    "longitude": "-111.92482009999999"
  },
  {
    "_id": {
      "$oid": "604c56e31e60e6e114645900"
    },
    "state": "Arizona",
    "location": "Scottsdale",
    "address": "20851 N Scottsdale Rd Ste 101 Scottsdale, AZ 85255 US",
    "latitude": "33.676241398416984",
    "longitude": "-111.92401394661744"
  },
  {
    "_id": {
      "$oid": "604c56e31e60e6e114645901"
    },
    "state": "Arizona",
    "location": "Scottsdale",
    "address": "2805 N Scottsdale Rd Ste 105 Scottsdale, AZ 85257 US",
    "latitude": "33.47933691276461",
    "longitude": "-111.92576791791788"
  },
  {
    "_id": {
      "$oid": "604c56e31e60e6e114645902"
    },
    "state": "Arizona",
    "location": "Scottsdale",
    "address": "4513 N Scottsdale Rd Ste 108 Scottsdale, AZ 85251 US",
    "latitude": "33.50337052422998",
    "longitude": "-111.92569464601536"
  },
  {
    "_id": {
      "$oid": "604c56e31e60e6e114645903"
    },
    "state": "Arizona",
    "location": "Scottsdale",
    "address": "7014 E Camelback Rd Ste 580 Scottsdale, AZ 85251 US",
    "latitude": "33.5036726721399",
    "longitude": "-111.92923654571541"
  },
  {
    "_id": {
      "$oid": "604c56e31e60e6e114645904"
    },
    "state": "Arizona",
    "location": "Scottsdale",
    "address": "8320 N Hayden Rd Ste 108 Scottsdale, AZ 85258 US",
    "latitude": "33.557573600000005",
    "longitude": "-111.89913759999999"
  },
  {
    "_id": {
      "$oid": "604c56e31e60e6e114645905"
    },
    "state": "Arizona",
    "location": "Scottsdale",
    "address": "9010 E Talking Stick Way Scottsdale, AZ 85250 US",
    "latitude": "33.5386903",
    "longitude": "-111.8876449"
  },
  {
    "_id": {
      "$oid": "604c56e31e60e6e114645906"
    },
    "state": "Arizona",
    "location": "Scottsdale",
    "address": "9301 E Shea Blvd Ste 102 Scottsdale, AZ 85260 US",
    "latitude": "33.58081392662861",
    "longitude": "-111.8819009164954"
  },
  {
    "_id": {
      "$oid": "604c56e31e60e6e114645907"
    },
    "state": "Arizona",
    "location": "Sedona",
    "address": "361 Forest Rd Ste B Sedona, AZ 86336 US",
    "latitude": "34.8683633460064",
    "longitude": "-111.76199563343236"
  },
  {
    "_id": {
      "$oid": "604c56e31e60e6e114645908"
    },
    "state": "Arizona",
    "location": "Sierra Vista",
    "address": "480 N Highway 90 Byp Ste A6 Sierra Vista, AZ 85635 US",
    "latitude": "31.559864738843068",
    "longitude": "-110.2579385717096"
  },
  {
    "_id": {
      "$oid": "604c56e31e60e6e114645909"
    },
    "state": "Arizona",
    "location": "Surprise",
    "address": "13869 W Bell Rd Ste 107 Surprise, AZ 85374 US",
    "latitude": "33.63829071307527",
    "longitude": "-112.35909253559929"
  },
  {
    "_id": {
      "$oid": "604c56e31e60e6e11464590a"
    },
    "state": "Arizona",
    "location": "Tempe",
    "address": "1038 S Mill Ave Tempe, AZ 85281 US",
    "latitude": "33.41798133570578",
    "longitude": "-111.94040165583704"
  },
  {
    "_id": {
      "$oid": "604c56e31e60e6e11464590b"
    },
    "state": "Arizona",
    "location": "Tempe",
    "address": "1655 W Elliot Rd Tempe, AZ 85284 US",
    "latitude": "33.348634000000004",
    "longitude": "-111.965379"
  },
  {
    "_id": {
      "$oid": "604c56e31e60e6e11464590c"
    },
    "state": "Arizona",
    "location": "Tempe",
    "address": "2000 E Rio Salado Pkwy Ste 1226 Tempe, AZ 85281 US",
    "latitude": "33.433368350573275",
    "longitude": "-111.90183616209517"
  },
  {
    "_id": {
      "$oid": "604c56e31e60e6e11464590d"
    },
    "state": "Arizona",
    "location": "Tempe",
    "address": "2020 E Elliot Rd Ste 102 Tempe, AZ 85284 US",
    "latitude": "33.349788800000006",
    "longitude": "-111.90155890000001"
  },
  {
    "_id": {
      "$oid": "604c56e31e60e6e11464590e"
    },
    "state": "Arizona",
    "location": "Tempe",
    "address": "815 E Baseline Rd Ste 118 Tempe, AZ 85283 US",
    "latitude": "33.37791758045822",
    "longitude": "-111.92908496080338"
  },
  {
    "_id": {
      "$oid": "604c56e31e60e6e11464590f"
    },
    "state": "Arizona",
    "location": "Tucson",
    "address": "1202 W Irvington Rd Tucson, AZ 85714 US",
    "latitude": "32.1639328",
    "longitude": "-110.9897341"
  },
  {
    "_id": {
      "$oid": "604c56e31e60e6e114645910"
    },
    "state": "Arizona",
    "location": "Tucson",
    "address": "235 W Wetmore Rd Ste 101 Tucson, AZ 85705 US",
    "latitude": "32.2861099",
    "longitude": "-110.97555190000001"
  },
  {
    "_id": {
      "$oid": "604c56e31e60e6e114645911"
    },
    "state": "Arizona",
    "location": "Tucson",
    "address": "3055 N Campbell Ave Ste 183 Tucson, AZ 85719 US",
    "latitude": "32.262389514895965",
    "longitude": "-110.9441263400534"
  },
  {
    "_id": {
      "$oid": "604c56e31e60e6e114645912"
    },
    "state": "Arizona",
    "location": "Tucson",
    "address": "4774 E Grant Rd Tucson, AZ 85712 US",
    "latitude": "32.25002327893095",
    "longitude": "-110.89092465751298"
  },
  {
    "_id": {
      "$oid": "604c56e31e60e6e114645913"
    },
    "state": "Arizona",
    "location": "Tucson",
    "address": "5870 E Broadway Blvd Ste 3002 Tucson, AZ 85711 US",
    "latitude": "32.21917539349937",
    "longitude": "-110.865486800636"
  },
  {
    "_id": {
      "$oid": "604c56e31e60e6e114645914"
    },
    "state": "Arizona",
    "location": "Tucson",
    "address": "6501 E Grant Rd Ste 141 Tucson, AZ 85715 US",
    "latitude": "32.25026412653463",
    "longitude": "-110.85154298893757"
  },
  {
    "_id": {
      "$oid": "604c56e31e60e6e114645915"
    },
    "state": "Arizona",
    "location": "Tucson",
    "address": "7555 N La Cholla Blvd Ste 155 Tucson, AZ 85741 US",
    "latitude": "32.3435616",
    "longitude": "-111.01341969999999"
  },
  {
    "_id": {
      "$oid": "604c56e31e60e6e114645916"
    },
    "state": "Arizona",
    "location": "Tucson",
    "address": "905 E University Blvd Ste 149 Tucson, AZ 85719 US",
    "latitude": "32.231921707186025",
    "longitude": "-110.95746181562401"
  },
  {
    "_id": {
      "$oid": "604c56e31e60e6e114645917"
    },
    "state": "Arizona",
    "location": "Tucson",
    "address": "9484 E 22nd St Ste 130 Tucson, AZ 85710 US",
    "latitude": "32.20596149006868",
    "longitude": "-110.79014354983956"
  },
  {
    "_id": {
      "$oid": "604c56e31e60e6e114645918"
    },
    "state": "Arizona",
    "location": "Yuma",
    "address": "1525 S Yuma Palms Pkwy Ste 3 Yuma, AZ 85365 US",
    "latitude": "32.699728",
    "longitude": "-114.60106840000002"
  },
  {
    "_id": {
      "$oid": "604c56e31e60e6e114645919"
    },
    "state": "Arizona",
    "location": "Yuma",
    "address": "3080 S 4th Avenue Suite A Yuma, AZ 85364 US",
    "latitude": "32.699878140781735",
    "longitude": "-114.60100324176365"
  },
  {
    "_id": {
      "$oid": "604c56e31e60e6e11464591a"
    },
    "state": "Arkansas",
    "location": "Bentonville",
    "address": "2400 SE Walton Blvd Bentonville, AR 72712 US",
    "latitude": "36.33465562169019",
    "longitude": "-94.18511392344068"
  },
  {
    "_id": {
      "$oid": "604c56e31e60e6e11464591b"
    },
    "state": "Arkansas",
    "location": "Conway",
    "address": "915 E Oak St Conway, AR 72032 US",
    "latitude": "35.091087283159816",
    "longitude": "-92.41823377546314"
  },
  {
    "_id": {
      "$oid": "604c56e31e60e6e11464591c"
    },
    "state": "Arkansas",
    "location": "Fayetteville",
    "address": "3379 N College Ave Ste 1 Fayetteville, AR 72703 US",
    "latitude": "36.11273654734074",
    "longitude": "-94.1453854033556"
  },
  {
    "_id": {
      "$oid": "604c56e31e60e6e11464591d"
    },
    "state": "Arkansas",
    "location": "Fayetteville",
    "address": "550 W Dickson St Fayetteville, AR 72701 US",
    "latitude": "36.066736703377906",
    "longitude": "-94.16612579287356"
  },
  {
    "_id": {
      "$oid": "604c56e31e60e6e11464591e"
    },
    "state": "Arkansas",
    "location": "Little Rock",
    "address": "100 S University Ave Little Rock, AR 72205 US",
    "latitude": "34.75201036980043",
    "longitude": "-92.34153181349184"
  },
  {
    "_id": {
      "$oid": "604c56e31e60e6e11464591f"
    },
    "state": "Arkansas",
    "location": "Little Rock",
    "address": "11525 Cantrell Rd Ste 1000 Little Rock, AR 72212 US",
    "latitude": "34.79354122408321",
    "longitude": "-92.40036710778713"
  },
  {
    "_id": {
      "$oid": "604c56e31e60e6e114645920"
    },
    "state": "California",
    "location": "Alameda",
    "address": "2314 S Shore Ctr Alameda, CA 94501 US",
    "latitude": "37.756120700000004",
    "longitude": "-122.25011370000001"
  },
  {
    "_id": {
      "$oid": "604c56e31e60e6e114645921"
    },
    "state": "California",
    "location": "Alameda",
    "address": "2610 5th St Ste A Alameda, CA 94501 US",
    "latitude": "37.786141007761614",
    "longitude": "-122.28120659723874"
  },
  {
    "_id": {
      "$oid": "604c56e31e60e6e114645922"
    },
    "state": "California",
    "location": "Alhambra",
    "address": "2121 W Main St Ste 210 Alhambra, CA 91801 US",
    "latitude": "34.092555299999994",
    "longitude": "-118.1458415"
  },
  {
    "_id": {
      "$oid": "604c56e31e60e6e114645923"
    },
    "state": "California",
    "location": "Aliso Viejo",
    "address": "26661 Aliso Creek Rd Ste A Aliso Viejo, CA 92656 US",
    "latitude": "33.57698001431661",
    "longitude": "-117.72542602602846"
  },
  {
    "_id": {
      "$oid": "604c56e31e60e6e114645924"
    },
    "state": "California",
    "location": "Anaheim",
    "address": "2002 E Lincoln Ave Anaheim, CA 92806 US",
    "latitude": "33.83957989941753",
    "longitude": "-117.88867467392521"
  },
  {
    "_id": {
      "$oid": "604c56e31e60e6e114645925"
    },
    "state": "California",
    "location": "Anaheim",
    "address": "5631 E La Palma Ave Anaheim, CA 92807 US",
    "latitude": "33.86056975099201",
    "longitude": "-117.79228294204808"
  },
  {
    "_id": {
      "$oid": "604c56e31e60e6e114645926"
    },
    "state": "California",
    "location": "Anaheim",
    "address": "8182 E Santa Ana Canyon Rd Ste 195 Anaheim, CA 92808 US",
    "latitude": "33.868027861305755",
    "longitude": "-117.74815098742596"
  },
  {
    "_id": {
      "$oid": "604c56e31e60e6e114645927"
    },
    "state": "California",
    "location": "Anaheim",
    "address": "927 S Euclid St Ste B Anaheim, CA 92802 US",
    "latitude": "33.818638951126964",
    "longitude": "-117.94176801989964"
  },
  {
    "_id": {
      "$oid": "604c56e31e60e6e114645928"
    },
    "state": "California",
    "location": "Apple Valley",
    "address": "19179 Bear Valley Rd Ste 4 Apple Valley, CA 92308 US",
    "latitude": "34.47069588108122",
    "longitude": "-117.2457914536875"
  },
  {
    "_id": {
      "$oid": "604c56e31e60e6e114645929"
    },
    "state": "California",
    "location": "Arcadia",
    "address": "400 S Baldwin Ave Ste FC-9 Arcadia, CA 91007 US",
    "latitude": "34.13572656223666",
    "longitude": "-118.04973664929628"
  },
  {
    "_id": {
      "$oid": "604c56e31e60e6e11464592a"
    },
    "state": "California",
    "location": "Arroyo Grande",
    "address": "1229 E Grand Ave Arroyo Grande, CA 93420 US",
    "latitude": "35.12017354508283",
    "longitude": "-120.60171216458565"
  },
  {
    "_id": {
      "$oid": "604c56e31e60e6e11464592b"
    },
    "state": "California",
    "location": "Auburn",
    "address": "2845 Bell Rd Ste A Auburn, CA 95603 US",
    "latitude": "38.941200800261605",
    "longitude": "-121.09614846331169"
  },
  {
    "_id": {
      "$oid": "604c56e31e60e6e11464592c"
    },
    "state": "California",
    "location": "Azusa",
    "address": "860 E Alosta Ave Azusa, CA 91702 US",
    "latitude": "34.12814641664687",
    "longitude": "-117.89157162822436"
  },
  {
    "_id": {
      "$oid": "604c56e31e60e6e11464592d"
    },
    "state": "California",
    "location": "Bakersfield",
    "address": "10510 Stockdale Hwy Bakersfield, CA 93311 US",
    "latitude": "35.35212176910199",
    "longitude": "-119.11911787270184"
  },
  {
    "_id": {
      "$oid": "604c56e31e60e6e11464592e"
    },
    "state": "California",
    "location": "Bakersfield",
    "address": "2630 Mt Vernon Avenue Suite 100 Bakersfield, CA 93306 US",
    "latitude": "35.39223261450192",
    "longitude": "-118.96794031141218"
  },
  {
    "_id": {
      "$oid": "604c56e31e60e6e11464592f"
    },
    "state": "California",
    "location": "Bakersfield",
    "address": "2701 Ming Ave Space 200 Bakersfield, CA 93304 US",
    "latitude": "35.33770689999999",
    "longitude": "-119.03516040000001"
  },
  {
    "_id": {
      "$oid": "604c56e31e60e6e114645930"
    },
    "state": "California",
    "location": "Bakersfield",
    "address": "4580 Coffee Rd Bakersfield, CA 93308 US",
    "latitude": "35.40116339582047",
    "longitude": "-119.091834844792"
  },
  {
    "_id": {
      "$oid": "604c56e31e60e6e114645931"
    },
    "state": "California",
    "location": "Bakersfield",
    "address": "4950 Stockdale Hwy Bakersfield, CA 93309 US",
    "latitude": "35.354530874548246",
    "longitude": "-119.05705893741705"
  },
  {
    "_id": {
      "$oid": "604c56e31e60e6e114645932"
    },
    "state": "California",
    "location": "Bakersfield",
    "address": "5321 Gosford Rd Bakersfield, CA 93313 US",
    "latitude": "35.306521838937286",
    "longitude": "-119.09252875520805"
  },
  {
    "_id": {
      "$oid": "604c56e31e60e6e114645933"
    },
    "state": "California",
    "location": "Baldwin Hills",
    "address": "3939 Crenshaw Blvd Ste A Baldwin Hills, CA 90008 US",
    "latitude": "34.01328442374881",
    "longitude": "-118.33662499830109"
  },
  {
    "_id": {
      "$oid": "604c56e31e60e6e114645934"
    },
    "state": "California",
    "location": "Baldwin Park",
    "address": "13916 Garvey Ave Baldwin Park, CA 91706 US",
    "latitude": "34.069396000000005",
    "longitude": "-117.97208"
  },
  {
    "_id": {
      "$oid": "604c56e31e60e6e114645935"
    },
    "state": "California",
    "location": "Banning",
    "address": "300 S Highland Springs Ave Ste 11A Banning, CA 92220 US",
    "latitude": "33.9238641",
    "longitude": "-116.94544270000002"
  },
  {
    "_id": {
      "$oid": "604c56e31e60e6e114645936"
    },
    "state": "California",
    "location": "Barstow",
    "address": "2590 High Point Pkwy Barstow, CA 92311 US",
    "latitude": "34.8528123628865",
    "longitude": "-117.082796711455"
  },
  {
    "_id": {
      "$oid": "604c56e31e60e6e114645937"
    },
    "state": "California",
    "location": "Berkeley",
    "address": "1050 Gilman St Berkeley, CA 94710 US",
    "latitude": "37.879393370779965",
    "longitude": "-122.29632448178829"
  },
  {
    "_id": {
      "$oid": "604c56e31e60e6e114645938"
    },
    "state": "California",
    "location": "Berkeley",
    "address": "2225 Shattuck Ave Berkeley, CA 94704 US",
    "latitude": "37.868873291219295",
    "longitude": "-122.26748664723873"
  },
  {
    "_id": {
      "$oid": "604c56e31e60e6e114645939"
    },
    "state": "California",
    "location": "Berkeley",
    "address": "2311 Telegraph Ave Berkeley, CA 94704 US",
    "latitude": "37.86838433691892",
    "longitude": "-122.25895608037399"
  },
  {
    "_id": {
      "$oid": "604c56e31e60e6e11464593a"
    },
    "state": "California",
    "location": "Beverly Hills",
    "address": "244 S Beverly Dr Beverly Hills, CA 90212 US",
    "latitude": "34.063323794483836",
    "longitude": "-118.39882933026638"
  },
  {
    "_id": {
      "$oid": "604c56e31e60e6e11464593b"
    },
    "state": "California",
    "location": "Beverly Hills",
    "address": "475 N Beverly Dr Beverly Hills, CA 90210 US",
    "latitude": "34.07132264504001",
    "longitude": "-118.40356168956656"
  },
  {
    "_id": {
      "$oid": "604c56e31e60e6e11464593c"
    },
    "state": "California",
    "location": "Brea",
    "address": "1065 Brea Mall Ste 2160 Brea, CA 92821 US",
    "latitude": "33.915677940492365",
    "longitude": "-117.8864340786871"
  },
  {
    "_id": {
      "$oid": "604c56e31e60e6e11464593d"
    },
    "state": "California",
    "location": "Brea",
    "address": "477 S Associated Rd Ste A Brea, CA 92821 US",
    "latitude": "33.91179690220889",
    "longitude": "-117.88205261146412"
  },
  {
    "_id": {
      "$oid": "604c56e31e60e6e11464593e"
    },
    "state": "California",
    "location": "Brentwood",
    "address": "5401 Lone Tree Way Ste 100 Brentwood, CA 94513 US",
    "latitude": "37.961260178266635",
    "longitude": "-121.74884971530331"
  },
  {
    "_id": {
      "$oid": "604c56e31e60e6e11464593f"
    },
    "state": "California",
    "location": "Buena Park",
    "address": "5976 Orangethorpe Ave Buena Park, CA 90620 US",
    "latitude": "33.85831428190834",
    "longitude": "-118.03057717907734"
  },
  {
    "_id": {
      "$oid": "604c56e31e60e6e114645940"
    },
    "state": "California",
    "location": "Burbank",
    "address": "135 E Palm Ave Spc A2 Burbank, CA 91502 US",
    "latitude": "34.181958786654135",
    "longitude": "-118.31143974113995"
  },
  {
    "_id": {
      "$oid": "604c56e31e60e6e114645941"
    },
    "state": "California",
    "location": "Burbank",
    "address": "4012 W Riverside Dr Burbank, CA 91505 US",
    "latitude": "34.1516477",
    "longitude": "-118.34335130000001"
  },
  {
    "_id": {
      "$oid": "604c56e31e60e6e114645942"
    },
    "state": "California",
    "location": "Cabazon",
    "address": "48557 Morongo Trail Cabazon, CA 92230 US",
    "latitude": "33.923277399999996",
    "longitude": "-116.80533870000001"
  },
  {
    "_id": {
      "$oid": "604c56e31e60e6e114645943"
    },
    "state": "California",
    "location": "Camarillo",
    "address": "660 Ventura Blvd Unit 500 Camarillo, CA 93010 US",
    "latitude": "34.21725346260006",
    "longitude": "-119.06555787396223"
  },
  {
    "_id": {
      "$oid": "604c56e31e60e6e114645944"
    },
    "state": "California",
    "location": "Campbell",
    "address": "1815 S Bascom Ave Campbell, CA 95008 US",
    "latitude": "37.29088001186664",
    "longitude": "-121.93205873037395"
  },
  {
    "_id": {
      "$oid": "604c56e31e60e6e114645945"
    },
    "state": "California",
    "location": "Canoga Park",
    "address": "6600 Topanga Canyon Blvd Unit FC09 Canoga Park, CA 91303 US",
    "latitude": "34.19",
    "longitude": "-118.60255"
  },
  {
    "_id": {
      "$oid": "604c56e31e60e6e114645946"
    },
    "state": "California",
    "location": "Capitola",
    "address": "1955 41st Ave Ste A5 Capitola, CA 95010 US",
    "latitude": "36.97793296544234",
    "longitude": "-121.96629033430656"
  },
  {
    "_id": {
      "$oid": "604c56e31e60e6e114645947"
    },
    "state": "California",
    "location": "Carlsbad",
    "address": "2505 Palomar Airport Rd Ste 100 Carlsbad, CA 92011 US",
    "latitude": "33.12805531775516",
    "longitude": "-117.27045117880392"
  },
  {
    "_id": {
      "$oid": "604c56e31e60e6e114645948"
    },
    "state": "California",
    "location": "Carlsbad",
    "address": "3416 Via Mercato Ste 110 Carlsbad, CA 92009 US",
    "latitude": "33.081846051416996",
    "longitude": "-117.23594035921002"
  },
  {
    "_id": {
      "$oid": "604c56e31e60e6e114645949"
    },
    "state": "California",
    "location": "Carson",
    "address": "20420 Avalon Blvd Ste A Carson, CA 90746 US",
    "latitude": "33.846571303188675",
    "longitude": "-118.26345516132488"
  },
  {
    "_id": {
      "$oid": "604c56e31e60e6e11464594a"
    },
    "state": "California",
    "location": "Castro Valley",
    "address": "3369 Castro Valley Blvd Castro Valley, CA 94546 US",
    "latitude": "37.695348082920106",
    "longitude": "-122.07682173834326"
  },
  {
    "_id": {
      "$oid": "604c56e31e60e6e11464594b"
    },
    "state": "California",
    "location": "Cerritos",
    "address": "10826 Alondra Blvd Cerritos, CA 90703 US",
    "latitude": "33.88592808196876",
    "longitude": "-118.1020101865082"
  },
  {
    "_id": {
      "$oid": "604c56e31e60e6e11464594c"
    },
    "state": "California",
    "location": "Cerritos",
    "address": "12560 Artesia Blvd Cerritos, CA 90703 US",
    "latitude": "33.872791481596124",
    "longitude": "-118.06421767787731"
  },
  {
    "_id": {
      "$oid": "604c56e31e60e6e11464594d"
    },
    "state": "California",
    "location": "Cerritos",
    "address": "459 Los Cerritos Mall Cerritos, CA 90703 US",
    "latitude": "33.8619",
    "longitude": "-118.092552"
  },
  {
    "_id": {
      "$oid": "604c56e31e60e6e11464594e"
    },
    "state": "California",
    "location": "Chatsworth",
    "address": "9175 De Soto Ave Chatsworth, CA 91311 US",
    "latitude": "34.237524151973574",
    "longitude": "-118.5891350291506"
  },
  {
    "_id": {
      "$oid": "604c56e31e60e6e11464594f"
    },
    "state": "California",
    "location": "Chico",
    "address": "1960 E 20th St Ste 100 Chico, CA 95928 US",
    "latitude": "39.72754269084902",
    "longitude": "-121.80506296936574"
  },
  {
    "_id": {
      "$oid": "604c56e31e60e6e114645950"
    },
    "state": "California",
    "location": "Chico",
    "address": "620 Mangrove Ave Chico, CA 95926 US",
    "latitude": "39.73437615123794",
    "longitude": "-121.83515019816492"
  },
  {
    "_id": {
      "$oid": "604c56e31e60e6e114645951"
    },
    "state": "California",
    "location": "Chino",
    "address": "12188 Central Ave Chino, CA 91710 US",
    "latitude": "34.03190485597059",
    "longitude": "-117.69030120491085"
  },
  {
    "_id": {
      "$oid": "604c56e31e60e6e114645952"
    },
    "state": "California",
    "location": "Chino Hills",
    "address": "13920 City Center Dr Ste 4005 Chino Hills, CA 91709 US",
    "latitude": "34.0006695",
    "longitude": "-117.7316068"
  },
  {
    "_id": {
      "$oid": "604c56e31e60e6e114645953"
    },
    "state": "California",
    "location": "Chula Vista",
    "address": "2290 Otay Lakes Rd 100 Chula Vista, CA 91915 US",
    "latitude": "32.64715651821109",
    "longitude": "-116.96557457182972"
  },
  {
    "_id": {
      "$oid": "604c56e31e60e6e114645954"
    },
    "state": "California",
    "location": "Chula Vista",
    "address": "569 H St Chula Vista, CA 91910 US",
    "latitude": "32.631538330080154",
    "longitude": "-117.0880960495063"
  },
  {
    "_id": {
      "$oid": "604c56e31e60e6e114645955"
    },
    "state": "California",
    "location": "Chula Vista",
    "address": "720 Otay Lakes Rd Chula Vista, CA 91910 US",
    "latitude": "32.646182",
    "longitude": "-117.002625"
  },
  {
    "_id": {
      "$oid": "604c56e31e60e6e114645956"
    },
    "state": "California",
    "location": "Citrus Heights",
    "address": "5851 Sunrise Blvd Citrus Heights, CA 95610 US",
    "latitude": "38.6720411",
    "longitude": "-121.27203279999999"
  },
  {
    "_id": {
      "$oid": "604c56e31e60e6e114645957"
    },
    "state": "California",
    "location": "City Of Industry",
    "address": "15495 Valley Blvd City Of Industry, CA 91746 US",
    "latitude": "34.0219656",
    "longitude": "-117.95959350000001"
  },
  {
    "_id": {
      "$oid": "604c56e31e60e6e114645958"
    },
    "state": "California",
    "location": "City Of Industry",
    "address": "17501 Colima Rd Ste C City Of Industry, CA 91748 US",
    "latitude": "33.991186",
    "longitude": "-117.9246994"
  },
  {
    "_id": {
      "$oid": "604c56e31e60e6e114645959"
    },
    "state": "California",
    "location": "Claremont",
    "address": "885 S Indian Hill Blvd Claremont, CA 91711 US",
    "latitude": "34.079562",
    "longitude": "-117.719517"
  },
  {
    "_id": {
      "$oid": "604c56e31e60e6e11464595a"
    },
    "state": "California",
    "location": "Clovis",
    "address": "1210 Shaw Ave Ste 101 Clovis, CA 93612 US",
    "latitude": "36.808164513576024",
    "longitude": "-119.6936528581836"
  },
  {
    "_id": {
      "$oid": "604c56e31e60e6e11464595b"
    },
    "state": "California",
    "location": "Clovis",
    "address": "1840 Herndon Ave Clovis, CA 93611 US",
    "latitude": "36.837102806014755",
    "longitude": "-119.6829132847252"
  },
  {
    "_id": {
      "$oid": "604c56e31e60e6e11464595c"
    },
    "state": "California",
    "location": "Colma",
    "address": "990 Serramonte Blvd Ste D Colma, CA 94014 US",
    "latitude": "37.671192136135346",
    "longitude": "-122.46439892638864"
  },
  {
    "_id": {
      "$oid": "604c56e31e60e6e11464595d"
    },
    "state": "California",
    "location": "Commerce",
    "address": "150 Citadel Dr Commerce, CA 90040 US",
    "latitude": "34.005728000000005",
    "longitude": "-118.152961"
  },
  {
    "_id": {
      "$oid": "604c56e31e60e6e11464595e"
    },
    "state": "California",
    "location": "Compton",
    "address": "1759 S Alameda St Ste 104 Compton, CA 90220 US",
    "latitude": "33.87653521836164",
    "longitude": "-118.2178387895666"
  },
  {
    "_id": {
      "$oid": "604c56e31e60e6e11464595f"
    },
    "state": "California",
    "location": "Concord",
    "address": "2002 Salvio St Ste A Concord, CA 94520 US",
    "latitude": "37.9768843",
    "longitude": "-122.03561780000001"
  },
  {
    "_id": {
      "$oid": "604c56e31e60e6e114645960"
    },
    "state": "California",
    "location": "Concord",
    "address": "785 Oak Grove Rd Ste E1 Concord, CA 94518 US",
    "latitude": "37.936932899999995",
    "longitude": "-122.02482859999998"
  },
  {
    "_id": {
      "$oid": "604c56e31e60e6e114645961"
    },
    "state": "California",
    "location": "Corona",
    "address": "1160 E Ontario Ave Ste 101 Corona, CA 92881 US",
    "latitude": "33.84761569537094",
    "longitude": "-117.54381688956663"
  },
  {
    "_id": {
      "$oid": "604c56e31e60e6e114645962"
    },
    "state": "California",
    "location": "Corona",
    "address": "2560 Tuscany St Ste 102 Corona, CA 92881 US",
    "latitude": "33.823651",
    "longitude": "-117.5165168"
  },
  {
    "_id": {
      "$oid": "604c56e31e60e6e114645963"
    },
    "state": "California",
    "location": "Costa Mesa",
    "address": "2300 Harbor Blvd Ste L1 Costa Mesa, CA 92626 US",
    "latitude": "33.6580777",
    "longitude": "-117.9187307"
  },
  {
    "_id": {
      "$oid": "604c56e31e60e6e114645964"
    },
    "state": "California",
    "location": "Costa Mesa",
    "address": "260 Bristol St Costa Mesa, CA 92626 US",
    "latitude": "33.66787924308129",
    "longitude": "-117.88292481349184"
  },
  {
    "_id": {
      "$oid": "604c56e31e60e6e114645965"
    },
    "state": "California",
    "location": "Costa Mesa",
    "address": "468 E 17th St Costa Mesa, CA 92627 US",
    "latitude": "33.629424900000004",
    "longitude": "-117.90954380000001"
  },
  {
    "_id": {
      "$oid": "604c56e31e60e6e114645966"
    },
    "state": "California",
    "location": "Culver City",
    "address": "4114 Sepulveda Blvd Suite G Culver City, CA 90230 US",
    "latitude": "34.007161815291546",
    "longitude": "-118.41262312546246"
  },
  {
    "_id": {
      "$oid": "604c56e31e60e6e114645967"
    },
    "state": "California",
    "location": "Culver City",
    "address": "6000 Sepulveda Blvd Ste 3236 Culver City, CA 90230 US",
    "latitude": "33.9854146",
    "longitude": "-118.39330690000001"
  },
  {
    "_id": {
      "$oid": "604c56e31e60e6e114645968"
    },
    "state": "California",
    "location": "Culver City",
    "address": "6150 W Slauson Ave 106 Culver City, CA 90230 US",
    "latitude": "33.98811135886199",
    "longitude": "-118.39300704814138"
  },
  {
    "_id": {
      "$oid": "604c56e31e60e6e114645969"
    },
    "state": "California",
    "location": "Culver City",
    "address": "9512 Culver Blvd Culver City, CA 90232 US",
    "latitude": "34.0233754",
    "longitude": "-118.39433829999999"
  },
  {
    "_id": {
      "$oid": "604c56e31e60e6e11464596a"
    },
    "state": "California",
    "location": "Cupertino",
    "address": "10385 S De Anza Blvd Cupertino, CA 95014 US",
    "latitude": "37.31726503354268",
    "longitude": "-122.03278998505787"
  },
  {
    "_id": {
      "$oid": "604c56e31e60e6e11464596b"
    },
    "state": "California",
    "location": "Cupertino",
    "address": "20688 Homestead Rd Cupertino, CA 95014 US",
    "latitude": "37.33731505459836",
    "longitude": "-122.03648371994059"
  },
  {
    "_id": {
      "$oid": "604c56e31e60e6e11464596c"
    },
    "state": "California",
    "location": "Cypress",
    "address": "6859 Katella Ave Cypress, CA 90630 US",
    "latitude": "33.8036646",
    "longitude": "-118.01243659999999"
  },
  {
    "_id": {
      "$oid": "604c56e31e60e6e11464596d"
    },
    "state": "California",
    "location": "Daly City",
    "address": "213 Westlake Ctr Daly City, CA 94015 US",
    "latitude": "37.7014805",
    "longitude": "-122.48236866"
  },
  {
    "_id": {
      "$oid": "604c56e31e60e6e11464596e"
    },
    "state": "California",
    "location": "Danville",
    "address": "33 Railroad Ave Danville, CA 94526 US",
    "latitude": "37.82315928914039",
    "longitude": "-122.00409490062908"
  },
  {
    "_id": {
      "$oid": "604c56e31e60e6e11464596f"
    },
    "state": "California",
    "location": "Davis",
    "address": "227 E St Ste 1 Davis, CA 95616 US",
    "latitude": "38.5440526",
    "longitude": "-121.7415034"
  },
  {
    "_id": {
      "$oid": "604c56e31e60e6e114645970"
    },
    "state": "California",
    "location": "Del Mar",
    "address": "2710 Via De La Valle Ste 290 Del Mar, CA 92014 US",
    "latitude": "32.981286594324196",
    "longitude": "-117.24979818185976"
  },
  {
    "_id": {
      "$oid": "604c56e31e60e6e114645971"
    },
    "state": "California",
    "location": "Diamond Bar",
    "address": "235 S Diamond Bar Blvd Ste B Diamond Bar, CA 91765 US",
    "latitude": "34.020877575226734",
    "longitude": "-117.81055878105349"
  },
  {
    "_id": {
      "$oid": "604c56e31e60e6e114645972"
    },
    "state": "California",
    "location": "Downey",
    "address": "8500 Firestone Blvd Downey, CA 90241 US",
    "latitude": "33.9378076569092",
    "longitude": "-118.12955238646722"
  },
  {
    "_id": {
      "$oid": "604c56e31e60e6e114645973"
    },
    "state": "California",
    "location": "Downey",
    "address": "8890 Apollo Way Ste A Downey, CA 90242 US",
    "latitude": "33.922229044251125",
    "longitude": "-118.13154774014572"
  },
  {
    "_id": {
      "$oid": "604c56e31e60e6e114645974"
    },
    "state": "California",
    "location": "Dublin",
    "address": "5240 Dublin Blvd Ste S2J Dublin, CA 94568 US",
    "latitude": "37.70561684178781",
    "longitude": "-121.89083598834328"
  },
  {
    "_id": {
      "$oid": "604c56e31e60e6e114645975"
    },
    "state": "California",
    "location": "Dublin",
    "address": "7020 Amador Plaza Rd Dublin, CA 94568 US",
    "latitude": "37.70637316166656",
    "longitude": "-121.92911820179428"
  },
  {
    "_id": {
      "$oid": "604c56e31e60e6e114645976"
    },
    "state": "California",
    "location": "El Cajon",
    "address": "225 Jamacha Rd El Cajon, CA 92019 US",
    "latitude": "32.794036199999994",
    "longitude": "-116.93481899999999"
  },
  {
    "_id": {
      "$oid": "604c56e31e60e6e114645977"
    },
    "state": "California",
    "location": "El Cerrito",
    "address": "9901 San Pablo Ave El Cerrito, CA 94530 US",
    "latitude": "37.89920809436757",
    "longitude": "-122.3023088717756"
  },
  {
    "_id": {
      "$oid": "604c56e31e60e6e114645978"
    },
    "state": "California",
    "location": "El Segundo",
    "address": "307 N Pacific Coast Hwy Unit B El Segundo, CA 90245 US",
    "latitude": "33.9196429750764",
    "longitude": "-118.39646644508913"
  },
  {
    "_id": {
      "$oid": "604c56e31e60e6e114645979"
    },
    "state": "California",
    "location": "Elk Grove",
    "address": "4730 Elk Grove Blvd Ste 110 Elk Grove, CA 95758 US",
    "latitude": "38.40832",
    "longitude": "-121.449308"
  },
  {
    "_id": {
      "$oid": "604c56e31e60e6e11464597a"
    },
    "state": "California",
    "location": "Elk Grove",
    "address": "7440 Laguna Blvd Ste 124 Elk Grove, CA 95758 US",
    "latitude": "38.4231808",
    "longitude": "-121.4155253"
  },
  {
    "_id": {
      "$oid": "604c56e31e60e6e11464597b"
    },
    "state": "California",
    "location": "Encinitas",
    "address": "268 N El Camino Real Encinitas, CA 92024 US",
    "latitude": "33.05221414764947",
    "longitude": "-117.26155619596021"
  },
  {
    "_id": {
      "$oid": "604c56e31e60e6e11464597c"
    },
    "state": "California",
    "location": "Escondido",
    "address": "1201 E Valley Pkwy Ste A Escondido, CA 92027 US",
    "latitude": "33.130322653305605",
    "longitude": "-117.06659018800501"
  },
  {
    "_id": {
      "$oid": "604c56e31e60e6e11464597d"
    },
    "state": "California",
    "location": "Escondido",
    "address": "1282 Auto Park Way Ste A Escondido, CA 92029 US",
    "latitude": "33.113014851997406",
    "longitude": "-117.10103903834325"
  },
  {
    "_id": {
      "$oid": "604c56e31e60e6e11464597e"
    },
    "state": "California",
    "location": "Escondido",
    "address": "200 E Via Rancho Pkwy Ste 455 Escondido, CA 92025 US",
    "latitude": "33.071038",
    "longitude": "-117.065973"
  },
  {
    "_id": {
      "$oid": "604c56e31e60e6e11464597f"
    },
    "state": "California",
    "location": "Eureka",
    "address": "2626 Broadway Street Suite 100 Eureka, CA 95501 US",
    "latitude": "40.7842726",
    "longitude": "-124.18361090000002"
  },
  {
    "_id": {
      "$oid": "604c56e31e60e6e114645980"
    },
    "state": "California",
    "location": "Fair Oaks",
    "address": "5223 Hazel Ave Fair Oaks, CA 95628 US",
    "latitude": "38.66156367871051",
    "longitude": "-121.22605489490637"
  },
  {
    "_id": {
      "$oid": "604c56e31e60e6e114645981"
    },
    "state": "California",
    "location": "Fairfield",
    "address": "1586 Gateway Blvd Ste B Fairfield, CA 94533 US",
    "latitude": "38.261633262094044",
    "longitude": "-122.05847163374688"
  },
  {
    "_id": {
      "$oid": "604c56e31e60e6e114645982"
    },
    "state": "California",
    "location": "Folsom",
    "address": "1001 E Bidwell St Ste 106 Folsom, CA 95630 US",
    "latitude": "38.6694922",
    "longitude": "-121.1559255"
  },
  {
    "_id": {
      "$oid": "604c56e31e60e6e114645983"
    },
    "state": "California",
    "location": "Folsom",
    "address": "2379 Iron Point Rd Ste 120 Folsom, CA 95630 US",
    "latitude": "38.645006275338716",
    "longitude": "-121.12336725425827"
  },
  {
    "_id": {
      "$oid": "604c56e31e60e6e114645984"
    },
    "state": "California",
    "location": "Fontana",
    "address": "10515 Sierra Ave D Fontana, CA 92337 US",
    "latitude": "34.0627057",
    "longitude": "-117.4350364"
  },
  {
    "_id": {
      "$oid": "604c56e31e60e6e114645985"
    },
    "state": "California",
    "location": "Fontana",
    "address": "16595 Sierra Lakes Pkwy Ste 100 Fontana, CA 92336 US",
    "latitude": "34.1385361",
    "longitude": "-117.4413977"
  },
  {
    "_id": {
      "$oid": "604c56e31e60e6e114645986"
    },
    "state": "California",
    "location": "Foothill Ranch",
    "address": "26552 Towne Centre Dr Foothill Ranch, CA 92610 US",
    "latitude": "33.67950658806537",
    "longitude": "-117.66868187607479"
  },
  {
    "_id": {
      "$oid": "604c56e31e60e6e114645987"
    },
    "state": "California",
    "location": "Foster City",
    "address": "2019 Chess Dr Foster City, CA 94404 US",
    "latitude": "37.562540203832256",
    "longitude": "-122.28064386932886"
  },
  {
    "_id": {
      "$oid": "604c56e31e60e6e114645988"
    },
    "state": "California",
    "location": "Fountain Valley",
    "address": "17150 Brookhurst St Ste E Fountain Valley, CA 92708 US",
    "latitude": "33.714169899999995",
    "longitude": "-117.9540216"
  },
  {
    "_id": {
      "$oid": "604c56e31e60e6e114645989"
    },
    "state": "California",
    "location": "Fountain Valley",
    "address": "18951 Brookhurst St Fountain Valley, CA 92708 US",
    "latitude": "33.68759248664302",
    "longitude": "-117.95451643741707"
  },
  {
    "_id": {
      "$oid": "604c56e31e60e6e11464598a"
    },
    "state": "California",
    "location": "Fremont",
    "address": "2760 Mowry Ave Fremont, CA 94538 US",
    "latitude": "37.55439779051461",
    "longitude": "-121.98171172607478"
  },
  {
    "_id": {
      "$oid": "604c56e31e60e6e11464598b"
    },
    "state": "California",
    "location": "Fremont",
    "address": "44029 Osgood Rd 106 Fremont, CA 94539 US",
    "latitude": "37.51104648073672",
    "longitude": "-121.9407045100329"
  },
  {
    "_id": {
      "$oid": "604c56e31e60e6e11464598c"
    },
    "state": "California",
    "location": "Fremont",
    "address": "5565 Auto Mall Pkwy Fremont, CA 94538 US",
    "latitude": "37.50434624597707",
    "longitude": "-121.97563680350912"
  },
  {
    "_id": {
      "$oid": "604c56e31e60e6e11464598d"
    },
    "state": "California",
    "location": "Fresno",
    "address": "3520 N Blackstone Ave Ste 102 Fresno, CA 93726 US",
    "latitude": "36.78161964568193",
    "longitude": "-119.7900766214958"
  },
  {
    "_id": {
      "$oid": "604c56e31e60e6e11464598e"
    },
    "state": "California",
    "location": "Fresno",
    "address": "4424 W Shaw Ave Fresno, CA 93722 US",
    "latitude": "36.809423820285076",
    "longitude": "-119.87181903191185"
  },
  {
    "_id": {
      "$oid": "604c56e31e60e6e11464598f"
    },
    "state": "California",
    "location": "Fresno",
    "address": "4978 N Cedar Ave Fresno, CA 93726 US",
    "latitude": "36.8081309228704",
    "longitude": "-119.75344405147962"
  },
  {
    "_id": {
      "$oid": "604c56e31e60e6e114645990"
    },
    "state": "California",
    "location": "Fresno",
    "address": "5128 N Palm Ave Fresno, CA 93704 US",
    "latitude": "36.8110901",
    "longitude": "-119.8079561"
  },
  {
    "_id": {
      "$oid": "604c56e31e60e6e114645991"
    },
    "state": "California",
    "location": "Fresno",
    "address": "80 E Nees Ave Fresno, CA 93720 US",
    "latitude": "36.85213062086552",
    "longitude": "-119.78899949694159"
  },
  {
    "_id": {
      "$oid": "604c56e31e60e6e114645992"
    },
    "state": "California",
    "location": "Fullerton",
    "address": "101 E Orangethorpe Ave Ste A Fullerton, CA 92832 US",
    "latitude": "33.859725096408425",
    "longitude": "-117.9238282525704"
  },
  {
    "_id": {
      "$oid": "604c56e31e60e6e114645993"
    },
    "state": "California",
    "location": "Fullerton",
    "address": "501 N State College Blvd Ste A Fullerton, CA 92831 US",
    "latitude": "33.874571303771816",
    "longitude": "-117.89017259877664"
  },
  {
    "_id": {
      "$oid": "604c56e31e60e6e114645994"
    },
    "state": "California",
    "location": "Garden Grove",
    "address": "9737 Chapman Ave Ste A Garden Grove, CA 92841 US",
    "latitude": "33.788840752076446",
    "longitude": "-117.96322514508915"
  },
  {
    "_id": {
      "$oid": "604c56e31e60e6e114645995"
    },
    "state": "California",
    "location": "Gardena",
    "address": "1755 W Artesia Blvd Gardena, CA 90248 US",
    "latitude": "33.873472344157946",
    "longitude": "-118.3088412521496"
  },
  {
    "_id": {
      "$oid": "604c56e31e60e6e114645996"
    },
    "state": "California",
    "location": "Gilroy",
    "address": "6955 Camino Arroyo Ste 70 Gilroy, CA 95020 US",
    "latitude": "37.00297748618978",
    "longitude": "-121.55199715368748"
  },
  {
    "_id": {
      "$oid": "604c56e31e60e6e114645997"
    },
    "state": "California",
    "location": "Glendale",
    "address": "1135 Glendale Galleria Suite FC-12 Glendale, CA 91210 US",
    "latitude": "34.145123999999996",
    "longitude": "-118.259326"
  },
  {
    "_id": {
      "$oid": "604c56e31e60e6e114645998"
    },
    "state": "California",
    "location": "Glendale",
    "address": "132 N Glendale Ave Glendale, CA 91206 US",
    "latitude": "34.14745710452632",
    "longitude": "-118.24634196073058"
  },
  {
    "_id": {
      "$oid": "604c56e31e60e6e114645999"
    },
    "state": "California",
    "location": "Glendale",
    "address": "155 N Brand Blvd Glendale, CA 91203 US",
    "latitude": "34.14795064352478",
    "longitude": "-118.25529353628349"
  },
  {
    "_id": {
      "$oid": "604c56e31e60e6e11464599a"
    },
    "state": "California",
    "location": "Glendora",
    "address": "1365 E Gladstone St Ste 700 Glendora, CA 91740 US",
    "latitude": "34.116364083478324",
    "longitude": "-117.8356347144007"
  },
  {
    "_id": {
      "$oid": "604c56e31e60e6e11464599b"
    },
    "state": "California",
    "location": "Gold River",
    "address": "2350 Sunrise Blvd Ste 3 Gold River, CA 95670 US",
    "latitude": "38.61703934520703",
    "longitude": "-121.26894929933836"
  },
  {
    "_id": {
      "$oid": "604c56e31e60e6e11464599c"
    },
    "state": "California",
    "location": "Goleta",
    "address": "270 Storke Rd Ste F Goleta, CA 93117 US",
    "latitude": "34.42917694680606",
    "longitude": "-119.8694057122686"
  },
  {
    "_id": {
      "$oid": "604c56e31e60e6e11464599d"
    },
    "state": "California",
    "location": "Granada Hills",
    "address": "16959 Devonshire St Granada Hills, CA 91344 US",
    "latitude": "34.25774798768706",
    "longitude": "-118.5020815711813"
  },
  {
    "_id": {
      "$oid": "604c56e31e60e6e11464599e"
    },
    "state": "California",
    "location": "Hanford",
    "address": "366 N 12th Ave Ste 113 Hanford, CA 93230 US",
    "latitude": "36.327476827217744",
    "longitude": "-119.67329958895492"
  },
  {
    "_id": {
      "$oid": "604c56e31e60e6e11464599f"
    },
    "state": "California",
    "location": "Hawthorne",
    "address": "5330 W Rosecrans Ave Hawthorne, CA 90250 US",
    "latitude": "33.90123578697386",
    "longitude": "-118.37322521000648"
  },
  {
    "_id": {
      "$oid": "604c56e31e60e6e1146459a0"
    },
    "state": "California",
    "location": "Hemet",
    "address": "2465 W Florida Ave Hemet, CA 92545 US",
    "latitude": "33.74715564751028",
    "longitude": "-116.9975101082838"
  },
  {
    "_id": {
      "$oid": "604c56e31e60e6e1146459a1"
    },
    "state": "California",
    "location": "Hermosa Beach",
    "address": "1439 Pacific Coast Hwy Hermosa Beach, CA 90254 US",
    "latitude": "33.86533148472044",
    "longitude": "-118.39348661381166"
  },
  {
    "_id": {
      "$oid": "604c56e31e60e6e1146459a2"
    },
    "state": "California",
    "location": "Hesperia",
    "address": "9770 Mariposa Rd Hesperia, CA 92345 US",
    "latitude": "34.427957",
    "longitude": "-117.37835"
  },
  {
    "_id": {
      "$oid": "604c56e31e60e6e1146459a3"
    },
    "state": "California",
    "location": "Huntington Beach",
    "address": "16241 Beach Blvd Huntington Beach, CA 92647 US",
    "latitude": "33.726848923164056",
    "longitude": "-117.98969228282068"
  },
  {
    "_id": {
      "$oid": "604c56e31e60e6e1146459a4"
    },
    "state": "California",
    "location": "Huntington Beach",
    "address": "7101 Yorktown Ave #100 Huntington Beach, CA 92648 US",
    "latitude": "33.68070597247496",
    "longitude": "-118.00434687881871"
  },
  {
    "_id": {
      "$oid": "604c56e31e60e6e1146459a5"
    },
    "state": "California",
    "location": "Imperial Beach",
    "address": "801 Palm Ave Imperial Beach, CA 91932 US",
    "latitude": "32.583602564038",
    "longitude": "-117.1154485898486"
  },
  {
    "_id": {
      "$oid": "604c56e31e60e6e1146459a6"
    },
    "state": "California",
    "location": "Inglewood",
    "address": "2944 West Imperial Hwy. Inglewood, CA 90303 US",
    "latitude": "33.9307059",
    "longitude": "-118.32558329999999"
  },
  {
    "_id": {
      "$oid": "604c56e31e60e6e1146459a7"
    },
    "state": "California",
    "location": "Inglewood",
    "address": "3421 W Century Blvd Inglewood, CA 90303 US",
    "latitude": "33.94656227495007",
    "longitude": "-118.33218297298164"
  },
  {
    "_id": {
      "$oid": "604c56e31e60e6e1146459a8"
    },
    "state": "California",
    "location": "Irvine",
    "address": "3955 Irvine Blvd Irvine, CA 92602 US",
    "latitude": "33.72352160975807",
    "longitude": "-117.77145642620678"
  },
  {
    "_id": {
      "$oid": "604c56e31e60e6e1146459a9"
    },
    "state": "California",
    "location": "Irvine",
    "address": "3966 Barranca Pkwy Ste B Irvine, CA 92606 US",
    "latitude": "33.6854646",
    "longitude": "-117.8111745"
  },
  {
    "_id": {
      "$oid": "604c56e31e60e6e1146459aa"
    },
    "state": "California",
    "location": "Irvine",
    "address": "4255 Campus Dr Ste A116 Irvine, CA 92612 US",
    "latitude": "33.64954032113868",
    "longitude": "-117.83907287874548"
  },
  {
    "_id": {
      "$oid": "604c56e31e60e6e1146459ab"
    },
    "state": "California",
    "location": "Irvine",
    "address": "6424 Irvine Blvd Irvine, CA 92620 US",
    "latitude": "33.69833318594014",
    "longitude": "-117.74094540918287"
  },
  {
    "_id": {
      "$oid": "604c56e31e60e6e1146459ac"
    },
    "state": "California",
    "location": "Irvine",
    "address": "731 Spectrum Center Dr Irvine, CA 92618 US",
    "latitude": "33.65076778673915",
    "longitude": "-117.74288414416293"
  },
  {
    "_id": {
      "$oid": "604c56e31e60e6e1146459ad"
    },
    "state": "California",
    "location": "La Canada Flintridge",
    "address": "895 Foothill Blvd Ste A La Canada Flintridge, CA 91011 US",
    "latitude": "34.2035553021316",
    "longitude": "-118.19775441532688"
  },
  {
    "_id": {
      "$oid": "604c56e31e60e6e1146459ae"
    },
    "state": "California",
    "location": "La Habra",
    "address": "1202 S Idaho St Ste A La Habra, CA 90631 US",
    "latitude": "33.91679033475907",
    "longitude": "-117.95886346154207"
  },
  {
    "_id": {
      "$oid": "604c56e31e60e6e1146459af"
    },
    "state": "California",
    "location": "La Jolla",
    "address": "8657 Villa La Jolla Dr Ste 209 La Jolla, CA 92037 US",
    "latitude": "32.865734",
    "longitude": "-117.232143"
  },
  {
    "_id": {
      "$oid": "604c56e31e60e6e1146459b0"
    },
    "state": "California",
    "location": "La Mesa",
    "address": "8005 Fletcher Pkwy La Mesa, CA 91942 US",
    "latitude": "32.77361313869",
    "longitude": "-117.02695971336595"
  },
  {
    "_id": {
      "$oid": "604c56e31e60e6e1146459b1"
    },
    "state": "California",
    "location": "La Quinta",
    "address": "79174 Highway 111 Ste 101 La Quinta, CA 92253 US",
    "latitude": "33.710716",
    "longitude": "-116.2832098"
  },
  {
    "_id": {
      "$oid": "604c56e31e60e6e1146459b2"
    },
    "state": "California",
    "location": "La Verne",
    "address": "2298 Foothill Blvd Ste C La Verne, CA 91750 US",
    "latitude": "34.11205096859536",
    "longitude": "-117.76224672293085"
  },
  {
    "_id": {
      "$oid": "604c56e31e60e6e1146459b3"
    },
    "state": "California",
    "location": "Lafayette",
    "address": "3518 Mt Diablo Blvd Ste F Lafayette, CA 94549 US",
    "latitude": "37.89320838385394",
    "longitude": "-122.11811986871719"
  },
  {
    "_id": {
      "$oid": "604c56e31e60e6e1146459b4"
    },
    "state": "California",
    "location": "Laguna Niguel",
    "address": "27221 La Paz Rd Ste H Laguna Niguel, CA 92677 US",
    "latitude": "33.56805089522741",
    "longitude": "-117.70855873098566"
  },
  {
    "_id": {
      "$oid": "604c56e31e60e6e1146459b5"
    },
    "state": "California",
    "location": "Laguna Niguel",
    "address": "32391 Golden Lantern Ste A Laguna Niguel, CA 92677 US",
    "latitude": "33.492622600000004",
    "longitude": "-117.6981154"
  },
  {
    "_id": {
      "$oid": "604c56e31e60e6e1146459b6"
    },
    "state": "California",
    "location": "Lake Forest",
    "address": "22379 El Toro Rd Lake Forest, CA 92630 US",
    "latitude": "33.63796530943036",
    "longitude": "-117.6806010030881"
  },
  {
    "_id": {
      "$oid": "604c56e31e60e6e1146459b7"
    },
    "state": "California",
    "location": "Lake Forest",
    "address": "23645 El Toro Road Lake Forest, CA 92630 US",
    "latitude": "33.618825783657925",
    "longitude": "-117.70345915116064"
  },
  {
    "_id": {
      "$oid": "604c56e31e60e6e1146459b8"
    },
    "state": "California",
    "location": "Lakewood",
    "address": "5310 Lakewood Blvd Lakewood, CA 90712 US",
    "latitude": "33.854145981105354",
    "longitude": "-118.14194237629259"
  },
  {
    "_id": {
      "$oid": "604c56e31e60e6e1146459b9"
    },
    "state": "California",
    "location": "Lancaster",
    "address": "855 W. Avenue K. Suite 101 Lancaster, CA 93534 US",
    "latitude": "34.675182",
    "longitude": "-118.1473502"
  },
  {
    "_id": {
      "$oid": "604c56e31e60e6e1146459ba"
    },
    "state": "California",
    "location": "Lebec",
    "address": "5602 Dennis McCarthy Dr Ste B Lebec, CA 93243 US",
    "latitude": "34.98650931128791",
    "longitude": "-118.94631826994056"
  },
  {
    "_id": {
      "$oid": "604c56e31e60e6e1146459bb"
    },
    "state": "California",
    "location": "Livermore",
    "address": "3238 Livermore Outlets Dr Livermore, CA 94551 US",
    "latitude": "37.698463200000006",
    "longitude": "-121.8449893"
  },
  {
    "_id": {
      "$oid": "604c56e31e60e6e1146459bc"
    },
    "state": "California",
    "location": "Livermore",
    "address": "4691 1st St Livermore, CA 94551 US",
    "latitude": "37.6990748",
    "longitude": "-121.74167959999998"
  },
  {
    "_id": {
      "$oid": "604c56e31e60e6e1146459bd"
    },
    "state": "California",
    "location": "Lodi",
    "address": "2310 Tienda Dr Ste 200 Lodi, CA 95242 US",
    "latitude": "38.1167581",
    "longitude": "-121.30258290000002"
  },
  {
    "_id": {
      "$oid": "604c56e31e60e6e1146459be"
    },
    "state": "California",
    "location": "Lodi",
    "address": "2601 Reynolds Ranch Pkwy Ste 140 Lodi, CA 95240 US",
    "latitude": "38.1007584",
    "longitude": "-121.26711920000001"
  },
  {
    "_id": {
      "$oid": "604c56e31e60e6e1146459bf"
    },
    "state": "California",
    "location": "Long Beach",
    "address": "1800 Ximeno Ave Long Beach, CA 90815 US",
    "latitude": "33.79012665654251",
    "longitude": "-118.13868055828381"
  },
  {
    "_id": {
      "$oid": "604c56e31e60e6e1146459c0"
    },
    "state": "California",
    "location": "Long Beach",
    "address": "245 Pine Ave Ste 190 Long Beach, CA 90802 US",
    "latitude": "33.770147975849525",
    "longitude": "-118.19266047015526"
  },
  {
    "_id": {
      "$oid": "604c56e31e60e6e1146459c1"
    },
    "state": "California",
    "location": "Long Beach",
    "address": "6324 E Pacific Coast Hwy Ste A Long Beach, CA 90803 US",
    "latitude": "33.759875",
    "longitude": "-118.11483500000001"
  },
  {
    "_id": {
      "$oid": "604c56e31e60e6e1146459c2"
    },
    "state": "California",
    "location": "Los Angeles",
    "address": "10250 Santa Monica Blvd Ste FC2 Los Angeles, CA 90067 US",
    "latitude": "34.058031",
    "longitude": "-118.41966799999999"
  },
  {
    "_id": {
      "$oid": "604c56e31e60e6e1146459c3"
    },
    "state": "California",
    "location": "Los Angeles",
    "address": "1077 Broxton Ave Los Angeles, CA 90024 US",
    "latitude": "34.061058613094744",
    "longitude": "-118.44631431715572"
  },
  {
    "_id": {
      "$oid": "604c56e31e60e6e1146459c4"
    },
    "state": "California",
    "location": "Los Angeles",
    "address": "110 S Fairfax Ave Ste A12 Los Angeles, CA 90036 US",
    "latitude": "34.073700332765725",
    "longitude": "-118.36094683888962"
  },
  {
    "_id": {
      "$oid": "604c56e31e60e6e1146459c5"
    },
    "state": "California",
    "location": "Los Angeles",
    "address": "1122 W 6th St 101 Los Angeles, CA 90017 US",
    "latitude": "34.0543205",
    "longitude": "-118.26320690000001"
  },
  {
    "_id": {
      "$oid": "604c56e31e60e6e1146459c6"
    },
    "state": "California",
    "location": "Los Angeles",
    "address": "11690 San Vicente Blvd Los Angeles, CA 90049 US",
    "latitude": "34.05350633181874",
    "longitude": "-118.46487593252176"
  },
  {
    "_id": {
      "$oid": "604c56e31e60e6e1146459c7"
    },
    "state": "California",
    "location": "Los Angeles",
    "address": "11711 National Blvd Los Angeles, CA 90064 US",
    "latitude": "34.022681490352895",
    "longitude": "-118.4391796765184"
  },
  {
    "_id": {
      "$oid": "604c56e31e60e6e1146459c8"
    },
    "state": "California",
    "location": "Los Angeles",
    "address": "1460 Vine St Los Angeles, CA 90028 US",
    "latitude": "34.09734687431174",
    "longitude": "-118.32636564723872"
  },
  {
    "_id": {
      "$oid": "604c56e31e60e6e1146459c9"
    },
    "state": "California",
    "location": "Los Angeles",
    "address": "2134 W Sunset Blvd Ste F Los Angeles, CA 90026 US",
    "latitude": "34.077145374346536",
    "longitude": "-118.26476045157143"
  },
  {
    "_id": {
      "$oid": "604c56e31e60e6e1146459ca"
    },
    "state": "California",
    "location": "Los Angeles",
    "address": "301 N Larchmont Blvd Los Angeles, CA 90004 US",
    "latitude": "34.0764487",
    "longitude": "-118.3239423"
  },
  {
    "_id": {
      "$oid": "604c56e31e60e6e1146459cb"
    },
    "state": "California",
    "location": "Los Angeles",
    "address": "301 W Olympic Blvd Ste A Los Angeles, CA 90015 US",
    "latitude": "34.042015",
    "longitude": "-118.25841000000001"
  },
  {
    "_id": {
      "$oid": "604c56e31e60e6e1146459cc"
    },
    "state": "California",
    "location": "Los Angeles",
    "address": "3183 Wilshire Blvd Ste 195 Los Angeles, CA 90010 US",
    "latitude": "34.062043200000005",
    "longitude": "-118.290865"
  },
  {
    "_id": {
      "$oid": "604c56e31e60e6e1146459cd"
    },
    "state": "California",
    "location": "Los Angeles",
    "address": "3748 S Figueroa St Los Angeles, CA 90007 US",
    "latitude": "34.016955555470794",
    "longitude": "-118.28258402025507"
  },
  {
    "_id": {
      "$oid": "604c56e31e60e6e1146459ce"
    },
    "state": "California",
    "location": "Los Angeles",
    "address": "4550 W Pico Blvd Ste C1301 Los Angeles, CA 90019 US",
    "latitude": "34.0481825",
    "longitude": "-118.33601217"
  },
  {
    "_id": {
      "$oid": "604c56e31e60e6e1146459cf"
    },
    "state": "California",
    "location": "Los Angeles",
    "address": "5047 Eagle Rock Blvd Los Angeles, CA 90041 US",
    "latitude": "34.138332433303944",
    "longitude": "-118.21472379467069"
  },
  {
    "_id": {
      "$oid": "604c56e31e60e6e1146459d0"
    },
    "state": "California",
    "location": "Los Angeles",
    "address": "5550 Wilshire Blvd Ste 101B Los Angeles, CA 90036 US",
    "latitude": "34.06211334855455",
    "longitude": "-118.35019592271921"
  },
  {
    "_id": {
      "$oid": "604c56e31e60e6e1146459d1"
    },
    "state": "California",
    "location": "Los Angeles",
    "address": "601 W 7th St Los Angeles, CA 90017 US",
    "latitude": "34.04759612692327",
    "longitude": "-118.25664718579831"
  },
  {
    "_id": {
      "$oid": "604c56e31e60e6e1146459d2"
    },
    "state": "California",
    "location": "Los Angeles",
    "address": "6719 La Tijera Blvd Ste A&B Los Angeles, CA 90045 US",
    "latitude": "33.9788835",
    "longitude": "-118.370701"
  },
  {
    "_id": {
      "$oid": "604c56e31e60e6e1146459d3"
    },
    "state": "California",
    "location": "Los Angeles",
    "address": "7101 Melrose Ave Los Angeles, CA 90046 US",
    "latitude": "34.08362649308188",
    "longitude": "-118.3443386895666"
  },
  {
    "_id": {
      "$oid": "604c56e31e60e6e1146459d4"
    },
    "state": "California",
    "location": "Los Angeles",
    "address": "7660 W Sunset Blvd Los Angeles, CA 90046 US",
    "latitude": "34.0978471129027",
    "longitude": "-118.35690521268083"
  },
  {
    "_id": {
      "$oid": "604c56e31e60e6e1146459d5"
    },
    "state": "California",
    "location": "Los Angeles",
    "address": "8420 Beverly Blvd Los Angeles, CA 90048 US",
    "latitude": "34.07313567",
    "longitude": "-118.37276533"
  },
  {
    "_id": {
      "$oid": "604c56e31e60e6e1146459d6"
    },
    "state": "California",
    "location": "Los Gatos",
    "address": "640 Blossom Hill Rd Los Gatos, CA 95032 US",
    "latitude": "37.23535350416661",
    "longitude": "-121.96365672110028"
  },
  {
    "_id": {
      "$oid": "604c56e31e60e6e1146459d7"
    },
    "state": "California",
    "location": "Madera",
    "address": "2180 W Cleveland Ave Ste 104 Madera, CA 93637 US",
    "latitude": "36.974021941219185",
    "longitude": "-120.08301113121536"
  },
  {
    "_id": {
      "$oid": "604c56e31e60e6e1146459d8"
    },
    "state": "California",
    "location": "Malibu",
    "address": "3822 Cross Creek Rd Unit 3834 Malibu, CA 90265 US",
    "latitude": "34.036158",
    "longitude": "-118.68482900000001"
  },
  {
    "_id": {
      "$oid": "604c56e31e60e6e1146459d9"
    },
    "state": "California",
    "location": "Manteca",
    "address": "1442 Hulsey Way Manteca, CA 95336 US",
    "latitude": "37.79631039976567",
    "longitude": "-121.19301733313456"
  },
  {
    "_id": {
      "$oid": "604c56e31e60e6e1146459da"
    },
    "state": "California",
    "location": "Marina",
    "address": "140 General Stillwell Drive Suite 106 Marina, CA 93933 US",
    "latitude": "36.66588128255013",
    "longitude": "-121.80972461674023"
  },
  {
    "_id": {
      "$oid": "604c56e31e60e6e1146459db"
    },
    "state": "California",
    "location": "Marina Del Rey",
    "address": "4718 Admiralty Way Marina Del Rey, CA 90292 US",
    "latitude": "33.979174",
    "longitude": "-118.4383297"
  },
  {
    "_id": {
      "$oid": "604c56e31e60e6e1146459dc"
    },
    "state": "California",
    "location": "Martinez",
    "address": "1061 Arnold Dr Martinez, CA 94553 US",
    "latitude": "37.994762435151145",
    "longitude": "-122.10585776070695"
  },
  {
    "_id": {
      "$oid": "604c56e31e60e6e1146459dd"
    },
    "state": "California",
    "location": "Menifee",
    "address": "30024 Haun Rd Ste 130 Menifee, CA 92584 US",
    "latitude": "33.68456530437326",
    "longitude": "-117.17496204295696"
  },
  {
    "_id": {
      "$oid": "604c56e31e60e6e1146459de"
    },
    "state": "California",
    "location": "Merced",
    "address": "3110 R St Ste A Merced, CA 95348 US",
    "latitude": "37.31977990890728",
    "longitude": "-120.48614440335558"
  },
  {
    "_id": {
      "$oid": "604c56e31e60e6e1146459df"
    },
    "state": "California",
    "location": "Millbrae",
    "address": "135 S El Camino Real Millbrae, CA 94030 US",
    "latitude": "37.596642874817725",
    "longitude": "-122.38616887789247"
  },
  {
    "_id": {
      "$oid": "604c56e31e60e6e1146459e0"
    },
    "state": "California",
    "location": "Milpitas",
    "address": "246 Great Mall Dr Ste 246 Milpitas, CA 95035 US",
    "latitude": "37.41575562692226",
    "longitude": "-121.89755758631577"
  },
  {
    "_id": {
      "$oid": "604c56e31e60e6e1146459e1"
    },
    "state": "California",
    "location": "Mira Loma",
    "address": "12411 Limonite Ave Ste 600 Mira Loma, CA 91752 US",
    "latitude": "33.97667219672287",
    "longitude": "-117.55285768220905"
  },
  {
    "_id": {
      "$oid": "604c56e31e60e6e1146459e2"
    },
    "state": "California",
    "location": "Mission Hills",
    "address": "10384 Sepulveda Blvd Ste 2E Mission Hills, CA 91345 US",
    "latitude": "34.25942",
    "longitude": "-118.46659070000001"
  },
  {
    "_id": {
      "$oid": "604c56e31e60e6e1146459e3"
    },
    "state": "California",
    "location": "Mission Viejo",
    "address": "25523 Marguerite Pkwy Ste A Mission Viejo, CA 92692 US",
    "latitude": "33.592456",
    "longitude": "-117.660366"
  },
  {
    "_id": {
      "$oid": "604c56e31e60e6e1146459e4"
    },
    "state": "California",
    "location": "Mission Viejo",
    "address": "27750 Crown Valley Pkwy Mission Viejo, CA 92691 US",
    "latitude": "33.559430658968246",
    "longitude": "-117.67142648344976"
  },
  {
    "_id": {
      "$oid": "604c56e31e60e6e1146459e5"
    },
    "state": "California",
    "location": "Mission Viejo",
    "address": "Vc10 Shops At Mission Viejo Mission Viejo, CA 92691 US",
    "latitude": "33.557971492152284",
    "longitude": "-117.6689722662411"
  },
  {
    "_id": {
      "$oid": "604c56e31e60e6e1146459e6"
    },
    "state": "California",
    "location": "Modesto",
    "address": "1801 McHenry Ave Ste B Modesto, CA 95350 US",
    "latitude": "37.67089836322028",
    "longitude": "-120.9946327764062"
  },
  {
    "_id": {
      "$oid": "604c56e31e60e6e1146459e7"
    },
    "state": "California",
    "location": "Modesto",
    "address": "3401 Dale Rd Ste 650 Modesto, CA 95356 US",
    "latitude": "37.68870917570512",
    "longitude": "-121.05397590868586"
  },
  {
    "_id": {
      "$oid": "604c56e31e60e6e1146459e8"
    },
    "state": "California",
    "location": "Monrovia",
    "address": "608 W Huntington Dr Monrovia, CA 91016 US",
    "latitude": "34.13980863005088",
    "longitude": "-118.01247076711643"
  },
  {
    "_id": {
      "$oid": "604c56e31e60e6e1146459e9"
    },
    "state": "California",
    "location": "Montclair",
    "address": "9177 Central Ave Ste B Montclair, CA 91763 US",
    "latitude": "34.08735747390883",
    "longitude": "-117.68910175613422"
  },
  {
    "_id": {
      "$oid": "604c56e31e60e6e1146459ea"
    },
    "state": "California",
    "location": "Montebello",
    "address": "545 N Montebello Blvd Ste B Montebello, CA 90640 US",
    "latitude": "34.018975299999994",
    "longitude": "-118.1059054"
  },
  {
    "_id": {
      "$oid": "604c56e31e60e6e1146459eb"
    },
    "state": "California",
    "location": "Monterey",
    "address": "500 Del Monte Ctr Ste 30 Monterey, CA 93940 US",
    "latitude": "36.58351079602785",
    "longitude": "-121.89678568496998"
  },
  {
    "_id": {
      "$oid": "604c56e31e60e6e1146459ec"
    },
    "state": "California",
    "location": "Monterey",
    "address": "560 Munras Ave Ste 20 Monterey, CA 93940 US",
    "latitude": "36.59696784159582",
    "longitude": "-121.89450361394216"
  },
  {
    "_id": {
      "$oid": "604c56e31e60e6e1146459ed"
    },
    "state": "California",
    "location": "Monterey Park",
    "address": "2180 S Atlantic Blvd Suite B Monterey Park, CA 91754 US",
    "latitude": "34.03839617176134",
    "longitude": "-118.14455450980438"
  },
  {
    "_id": {
      "$oid": "604c56e31e60e6e1146459ee"
    },
    "state": "California",
    "location": "Moorpark",
    "address": "806 E Los Angeles Ave. Moorpark, CA 93021 US",
    "latitude": "34.278874",
    "longitude": "-118.8665098"
  },
  {
    "_id": {
      "$oid": "604c56e31e60e6e1146459ef"
    },
    "state": "California",
    "location": "Moreno Valley",
    "address": "12625 Frederick St Ste S-1 Moreno Valley, CA 92553 US",
    "latitude": "33.93697901084461",
    "longitude": "-117.2618174240078"
  },
  {
    "_id": {
      "$oid": "604c56e31e60e6e1146459f0"
    },
    "state": "California",
    "location": "Morgan Hill",
    "address": "775 Cochrane Rd Ste 140 Morgan Hill, CA 95037 US",
    "latitude": "37.15120417259024",
    "longitude": "-121.65604422441992"
  },
  {
    "_id": {
      "$oid": "604c56e31e60e6e1146459f1"
    },
    "state": "California",
    "location": "Mountain View",
    "address": "1039 El Monte Ave Ste A Mountain View, CA 94040 US",
    "latitude": "37.390652405377395",
    "longitude": "-122.09440156430868"
  },
  {
    "_id": {
      "$oid": "604c56e31e60e6e1146459f2"
    },
    "state": "California",
    "location": "Mountain View",
    "address": "2400 Charleston Rd Mountain View, CA 94043 US",
    "latitude": "37.4218453291052",
    "longitude": "-122.09651837949751"
  },
  {
    "_id": {
      "$oid": "604c56e31e60e6e1146459f3"
    },
    "state": "California",
    "location": "Murrieta",
    "address": "40940 California Oaks Rd Ste A Murrieta, CA 92562 US",
    "latitude": "33.5683063848896",
    "longitude": "-117.20468239847946"
  },
  {
    "_id": {
      "$oid": "604c56e31e60e6e1146459f4"
    },
    "state": "California",
    "location": "Napa",
    "address": "1715 Trancas St Suite D Napa, CA 94558 US",
    "latitude": "38.3212999",
    "longitude": "-122.3059614"
  },
  {
    "_id": {
      "$oid": "604c56e31e60e6e1146459f5"
    },
    "state": "California",
    "location": "Napa",
    "address": "304 Soscol Ave Ste F Napa, CA 94559 US",
    "latitude": "38.28588119085403",
    "longitude": "-122.27434205735756"
  },
  {
    "_id": {
      "$oid": "604c56e31e60e6e1146459f6"
    },
    "state": "California",
    "location": "National City",
    "address": "404 Mile Of Cars Way National City, CA 91950 US",
    "latitude": "32.66055955059648",
    "longitude": "-117.1055656270026"
  },
  {
    "_id": {
      "$oid": "604c56e31e60e6e1146459f7"
    },
    "state": "California",
    "location": "Newark",
    "address": "34883 Newark Blvd Newark, CA 94560 US",
    "latitude": "37.55115907630892",
    "longitude": "-122.05144880393186"
  },
  {
    "_id": {
      "$oid": "604c56e31e60e6e1146459f8"
    },
    "state": "California",
    "location": "Newport Beach",
    "address": "1322 Bison Ave Newport Beach, CA 92660 US",
    "latitude": "33.63897764137414",
    "longitude": "-117.8600891346731"
  },
  {
    "_id": {
      "$oid": "604c56e31e60e6e1146459f9"
    },
    "state": "California",
    "location": "Newport Beach",
    "address": "3101 Newport Blvd Newport Beach, CA 92663 US",
    "latitude": "33.6152648852506",
    "longitude": "-117.93063838245148"
  },
  {
    "_id": {
      "$oid": "604c56e31e60e6e1146459fa"
    },
    "state": "California",
    "location": "Norco",
    "address": "1409 Hamner Ave Norco, CA 92860 US",
    "latitude": "33.902656",
    "longitude": "-117.56189499999999"
  },
  {
    "_id": {
      "$oid": "604c56e31e60e6e1146459fb"
    },
    "state": "California",
    "location": "North Hollywood",
    "address": "13075 Victory Blvd Spc 102 North Hollywood, CA 91606 US",
    "latitude": "34.18809",
    "longitude": "-118.41698999999998"
  },
  {
    "_id": {
      "$oid": "604c56e31e60e6e1146459fc"
    },
    "state": "California",
    "location": "North Hollywood",
    "address": "5240 Lankershim Blvd North Hollywood, CA 91601 US",
    "latitude": "34.1661600822382",
    "longitude": "-118.37501567104816"
  },
  {
    "_id": {
      "$oid": "604c56e31e60e6e1146459fd"
    },
    "state": "California",
    "location": "Northridge",
    "address": "19332 Nordhoff St Northridge, CA 91324 US",
    "latitude": "34.2346925",
    "longitude": "-118.55515290000001"
  },
  {
    "_id": {
      "$oid": "604c56e31e60e6e1146459fe"
    },
    "state": "California",
    "location": "Northridge",
    "address": "8420 Balboa Blvd 110 Northridge, CA 91325 US",
    "latitude": "34.223551",
    "longitude": "-118.5019409"
  },
  {
    "_id": {
      "$oid": "604c56e31e60e6e1146459ff"
    },
    "state": "California",
    "location": "Northridge",
    "address": "9160 Reseda Blvd Northridge, CA 91324 US",
    "latitude": "34.23697270172239",
    "longitude": "-118.53570619413168"
  },
  {
    "_id": {
      "$oid": "604c56e31e60e6e114645a00"
    },
    "state": "California",
    "location": "Novato",
    "address": "880 De Long Ave Novato, CA 94945 US",
    "latitude": "38.10599116178466",
    "longitude": "-122.56960896073052"
  },
  {
    "_id": {
      "$oid": "604c56e31e60e6e114645a01"
    },
    "state": "California",
    "location": "Oakland",
    "address": "3017 Broadway Oakland, CA 94611 US",
    "latitude": "37.81919",
    "longitude": "-122.26258500000002"
  },
  {
    "_id": {
      "$oid": "604c56e31e60e6e114645a02"
    },
    "state": "California",
    "location": "Oakland",
    "address": "3271 Lakeshore Ave Oakland, CA 94610 US",
    "latitude": "37.81076741599637",
    "longitude": "-122.24476638808744"
  },
  {
    "_id": {
      "$oid": "604c56e31e60e6e114645a03"
    },
    "state": "California",
    "location": "Oakland",
    "address": "8460 Edgewater Dr Ste C Oakland, CA 94621 US",
    "latitude": "37.737940786182094",
    "longitude": "-122.19746573745556"
  },
  {
    "_id": {
      "$oid": "604c56e31e60e6e114645a04"
    },
    "state": "California",
    "location": "Oceanside",
    "address": "2611 Vista Way Ste A Oceanside, CA 92054 US",
    "latitude": "33.181893",
    "longitude": "-117.33164"
  },
  {
    "_id": {
      "$oid": "604c56e31e60e6e114645a05"
    },
    "state": "California",
    "location": "Oceanside",
    "address": "4111 Oceanside Blvd Ste 103 Oceanside, CA 92056 US",
    "latitude": "33.205653064520334",
    "longitude": "-117.28861079569788"
  },
  {
    "_id": {
      "$oid": "604c56e31e60e6e114645a06"
    },
    "state": "California",
    "location": "Oceanside",
    "address": "495 College Blvd Ste A Oceanside, CA 92057 US",
    "latitude": "33.245213451838396",
    "longitude": "-117.29050765091336"
  },
  {
    "_id": {
      "$oid": "604c56e31e60e6e114645a07"
    },
    "state": "California",
    "location": "Ontario",
    "address": "1 Mills Cir Ste FC4 Ontario, CA 91764 US",
    "latitude": "34.073101",
    "longitude": "-117.552031"
  },
  {
    "_id": {
      "$oid": "604c56e31e60e6e114645a08"
    },
    "state": "California",
    "location": "Ontario",
    "address": "2200 S Grove Ave Ste 104 Ontario, CA 91761 US",
    "latitude": "34.03373896280914",
    "longitude": "-117.62892868773157"
  },
  {
    "_id": {
      "$oid": "604c56e31e60e6e114645a09"
    },
    "state": "California",
    "location": "Orange",
    "address": "2202 N Tustin St Ste A Orange, CA 92865 US",
    "latitude": "33.82580291158203",
    "longitude": "-117.83640855889551"
  },
  {
    "_id": {
      "$oid": "604c56e31e60e6e114645a0a"
    },
    "state": "California",
    "location": "Orange",
    "address": "3440 E Chapman Ave Orange, CA 92869 US",
    "latitude": "33.787170245544765",
    "longitude": "-117.81656088159728"
  },
  {
    "_id": {
      "$oid": "604c56e31e60e6e114645a0b"
    },
    "state": "California",
    "location": "Oroville",
    "address": "325 Oroville Dam Blvd Suite E1 Oroville, CA 95965 US",
    "latitude": "39.49757019320775",
    "longitude": "-121.57234387204487"
  },
  {
    "_id": {
      "$oid": "604c56e31e60e6e114645a0c"
    },
    "state": "California",
    "location": "Oxnard",
    "address": "1291 S Victoria Ave Oxnard, CA 93035 US",
    "latitude": "34.188414",
    "longitude": "-119.222122"
  },
  {
    "_id": {
      "$oid": "604c56e31e60e6e114645a0d"
    },
    "state": "California",
    "location": "Oxnard",
    "address": "369 W Esplanade Dr Oxnard, CA 93036 US",
    "latitude": "34.2340585",
    "longitude": "-119.17861740000001"
  },
  {
    "_id": {
      "$oid": "604c56e31e60e6e114645a0e"
    },
    "state": "California",
    "location": "Pacific Palisades",
    "address": "15207 W Sunset Blvd Pacific Palisades, CA 90272 US",
    "latitude": "34.046596",
    "longitude": "-118.524413"
  },
  {
    "_id": {
      "$oid": "604c56e31e60e6e114645a0f"
    },
    "state": "California",
    "location": "Palm Desert",
    "address": "34100 Monterey Ave 100 Palm Desert, CA 92211 US",
    "latitude": "33.801446689642624",
    "longitude": "-116.38747067484036"
  },
  {
    "_id": {
      "$oid": "604c56e31e60e6e114645a10"
    },
    "state": "California",
    "location": "Palm Desert",
    "address": "72333 Highway 111 Ste A Palm Desert, CA 92260 US",
    "latitude": "33.7281369",
    "longitude": "-116.40305049999999"
  },
  {
    "_id": {
      "$oid": "604c56e31e60e6e114645a11"
    },
    "state": "California",
    "location": "Palm Springs",
    "address": "2465 E Palm Canyon Dr Ste 1110 Palm Springs, CA 92264 US",
    "latitude": "33.800772096449144",
    "longitude": "-116.52167565167817"
  },
  {
    "_id": {
      "$oid": "604c56e31e60e6e114645a12"
    },
    "state": "California",
    "location": "Palmdale",
    "address": "1125 W Rancho Vista Blvd Ste B Palmdale, CA 93551 US",
    "latitude": "34.6023208",
    "longitude": "-118.1503435"
  },
  {
    "_id": {
      "$oid": "604c56e31e60e6e114645a13"
    },
    "state": "California",
    "location": "Palo Alto",
    "address": "180 El Camino Real Ste 15A Palo Alto, CA 94304 US",
    "latitude": "37.44481458900919",
    "longitude": "-122.16927148831822"
  },
  {
    "_id": {
      "$oid": "604c56e31e60e6e114645a14"
    },
    "state": "California",
    "location": "Palo Alto",
    "address": "2675 El Camino Real Palo Alto, CA 94306 US",
    "latitude": "37.42387416998631",
    "longitude": "-122.14306001409534"
  },
  {
    "_id": {
      "$oid": "604c56e31e60e6e114645a15"
    },
    "state": "California",
    "location": "Panorama City",
    "address": "7940 Van Nuys Blvd # 2A Panorama City, CA 91402 US",
    "latitude": "34.21576549591313",
    "longitude": "-118.4484124987124"
  },
  {
    "_id": {
      "$oid": "604c56e31e60e6e114645a16"
    },
    "state": "California",
    "location": "Paramount",
    "address": "15754 Paramount Blvd A Paramount, CA 90723 US",
    "latitude": "33.8895507",
    "longitude": "-118.15984920000001"
  },
  {
    "_id": {
      "$oid": "604c56e31e60e6e114645a17"
    },
    "state": "California",
    "location": "Pasadena",
    "address": "1687 E Colorado Blvd Pasadena, CA 91106 US",
    "latitude": "34.1462581",
    "longitude": "-118.11557959999999"
  },
  {
    "_id": {
      "$oid": "604c56e31e60e6e114645a18"
    },
    "state": "California",
    "location": "Pasadena",
    "address": "246 S Lake Ave Pasadena, CA 91101 US",
    "latitude": "34.14161412024798",
    "longitude": "-118.13191377852155"
  },
  {
    "_id": {
      "$oid": "604c56e31e60e6e114645a19"
    },
    "state": "California",
    "location": "Pasadena",
    "address": "3409 E Foothill Blvd Pasadena, CA 91107 US",
    "latitude": "34.151687162182554",
    "longitude": "-118.08020075602523"
  },
  {
    "_id": {
      "$oid": "604c56e31e60e6e114645a1a"
    },
    "state": "California",
    "location": "Paso Robles",
    "address": "98 Niblick Rd Paso Robles, CA 93446 US",
    "latitude": "35.614783491487046",
    "longitude": "-120.6833899971"
  },
  {
    "_id": {
      "$oid": "604c56e31e60e6e114645a1b"
    },
    "state": "California",
    "location": "Perris",
    "address": "1870 N Perris Blvd Perris, CA 92571 US",
    "latitude": "33.80745746473947",
    "longitude": "-117.2265905485969"
  },
  {
    "_id": {
      "$oid": "604c56e31e60e6e114645a1c"
    },
    "state": "California",
    "location": "Petaluma",
    "address": "401 Kenilworth Dr Ste 710 Petaluma, CA 94952 US",
    "latitude": "38.24360598292279",
    "longitude": "-122.62638934384842"
  },
  {
    "_id": {
      "$oid": "604c56e31e60e6e114645a1d"
    },
    "state": "California",
    "location": "Pico Rivera",
    "address": "8888 Whittier Blvd Pico Rivera, CA 90660 US",
    "latitude": "34.00121277753509",
    "longitude": "-118.084295939847"
  },
  {
    "_id": {
      "$oid": "604c56e31e60e6e114645a1e"
    },
    "state": "California",
    "location": "Pinole",
    "address": "2696 Pinole Valley Rd Pinole, CA 94564 US",
    "latitude": "37.995844880693774",
    "longitude": "-122.28616963049593"
  },
  {
    "_id": {
      "$oid": "604c56e31e60e6e114645a1f"
    },
    "state": "California",
    "location": "Pittsburg",
    "address": "4418 Century Blvd Pittsburg, CA 94565 US",
    "latitude": "38.005543685158585",
    "longitude": "-121.83947117605857"
  },
  {
    "_id": {
      "$oid": "604c56e31e60e6e114645a20"
    },
    "state": "California",
    "location": "Placentia",
    "address": "1474 N Kraemer Blvd Ste A3 Placentia, CA 92870 US",
    "latitude": "33.887538899999996",
    "longitude": "-117.8627577"
  },
  {
    "_id": {
      "$oid": "604c56e31e60e6e114645a21"
    },
    "state": "California",
    "location": "Placerville",
    "address": "3987 Missouri Flat Rd Ste 390 Placerville, CA 95667 US",
    "latitude": "38.71319049321305",
    "longitude": "-120.84009296658495"
  },
  {
    "_id": {
      "$oid": "604c56e31e60e6e114645a22"
    },
    "state": "California",
    "location": "Pleasant Hill",
    "address": "552 Contra Costa Blvd Ste 110 Pleasant Hill, CA 94523 US",
    "latitude": "37.97882255642107",
    "longitude": "-122.06682087194211"
  },
  {
    "_id": {
      "$oid": "604c56e31e60e6e114645a23"
    },
    "state": "California",
    "location": "Pleasant Hill",
    "address": "60 Crescent Dr Ste G Pleasant Hill, CA 94523 US",
    "latitude": "37.945835200000005",
    "longitude": "-122.0617206"
  },
  {
    "_id": {
      "$oid": "604c56e31e60e6e114645a24"
    },
    "state": "California",
    "location": "Pleasanton",
    "address": "6654 Koll Center Pkwy Ste 330 Pleasanton, CA 94566 US",
    "latitude": "37.6589742",
    "longitude": "-121.897972"
  },
  {
    "_id": {
      "$oid": "604c56e31e60e6e114645a25"
    },
    "state": "California",
    "location": "Pomona",
    "address": "785 Rio Rancho Rd Ste 300 Pomona, CA 91766 US",
    "latitude": "34.03369167184923",
    "longitude": "-117.75679611288011"
  },
  {
    "_id": {
      "$oid": "604c56e31e60e6e114645a26"
    },
    "state": "California",
    "location": "Porterville",
    "address": "1174 W Henderson Ave Ste B Porterville, CA 93257 US",
    "latitude": "36.080879100000004",
    "longitude": "-119.04357749999998"
  },
  {
    "_id": {
      "$oid": "604c56e31e60e6e114645a27"
    },
    "state": "California",
    "location": "Poway",
    "address": "13495 Poway Rd Poway, CA 92064 US",
    "latitude": "32.95490609620121",
    "longitude": "-117.03890350249391"
  },
  {
    "_id": {
      "$oid": "604c56e31e60e6e114645a28"
    },
    "state": "California",
    "location": "Rancho Cordova",
    "address": "2878 Zinfandel Dr Ste A Rancho Cordova, CA 95670 US",
    "latitude": "38.59431543959226",
    "longitude": "-121.28856367792721"
  },
  {
    "_id": {
      "$oid": "604c56e31e60e6e114645a29"
    },
    "state": "California",
    "location": "Rancho Cucamonga",
    "address": "10811 Foothill Blvd Rancho Cucamonga, CA 91730 US",
    "latitude": "34.10618342316279",
    "longitude": "-117.56885958219362"
  },
  {
    "_id": {
      "$oid": "604c56e31e60e6e114645a2a"
    },
    "state": "California",
    "location": "Rancho Cucamonga",
    "address": "11334 4th St Ste 101 Rancho Cucamonga, CA 91730 US",
    "latitude": "34.07764976353122",
    "longitude": "-117.55757129295695"
  },
  {
    "_id": {
      "$oid": "604c56e31e60e6e114645a2b"
    },
    "state": "California",
    "location": "Rancho Cucamonga",
    "address": "7879 Monticello Ave Rancho Cucamonga, CA 91739 US",
    "latitude": "34.110306994392225",
    "longitude": "-117.53548142270182"
  },
  {
    "_id": {
      "$oid": "604c56e31e60e6e114645a2c"
    },
    "state": "California",
    "location": "Rancho Santa Margarita",
    "address": "22245 El Paseo Ste C Rancho Santa Margarita, CA 92688 US",
    "latitude": "33.639114539934354",
    "longitude": "-117.59409620985576"
  },
  {
    "_id": {
      "$oid": "604c56e31e60e6e114645a2d"
    },
    "state": "California",
    "location": "Redding",
    "address": "961 Dana Dr Ste 160 Redding, CA 96003 US",
    "latitude": "40.585336942860884",
    "longitude": "-122.35400461331209"
  },
  {
    "_id": {
      "$oid": "604c56e31e60e6e114645a2e"
    },
    "state": "California",
    "location": "Redlands",
    "address": "27511 San Bernardino Ave Ste B Redlands, CA 92374 US",
    "latitude": "34.073994434860715",
    "longitude": "-117.20505341226844"
  },
  {
    "_id": {
      "$oid": "604c56e31e60e6e114645a2f"
    },
    "state": "California",
    "location": "Redlands",
    "address": "635 Orange St Redlands, CA 92374 US",
    "latitude": "34.061169",
    "longitude": "-117.18281999999999"
  },
  {
    "_id": {
      "$oid": "604c56e31e60e6e114645a30"
    },
    "state": "California",
    "location": "Redondo Beach",
    "address": "1430 S Pacific Coast Hwy Redondo Beach, CA 90277 US",
    "latitude": "33.821682621174155",
    "longitude": "-118.38514218711988"
  },
  {
    "_id": {
      "$oid": "604c56e31e60e6e114645a31"
    },
    "state": "California",
    "location": "Redwood City",
    "address": "861 Middlefield Rd Redwood City, CA 94063 US",
    "latitude": "37.485819899999996",
    "longitude": "-122.2289647"
  },
  {
    "_id": {
      "$oid": "604c56e31e60e6e114645a32"
    },
    "state": "California",
    "location": "Rialto",
    "address": "1314 S Riverside Ave 4B Rialto, CA 92376 US",
    "latitude": "34.0772722",
    "longitude": "-117.37080970000001"
  },
  {
    "_id": {
      "$oid": "604c56e31e60e6e114645a33"
    },